[{"type":"farm","street":"186 leonard street","city":"Acushnet","state":"MA","zip":"02743","longitude":"-70.9008270","latitude":"41.7201499","name":"Acushnet Farmers Market","website":"www.acushnetfarmersmarket.com","facebook":"https://www.facebook.com/pages/Acushnet Farmers Market","twitter":"Acushnetfarmmarket@eventsonthefarm","tags":"baked-goods bedding plants canned preserved coffee tea cut-flowers dairy products eggs herbs fresh-fruits fresh-vegetables honey poultry fowl prepared-foods red-meat non-poultry-meat soap body-care wine spirits beer hard-cider"},{"type":"farm","street":"3210 Hancock Rd / Rte 43","city":"Hancock","state":"MA","zip":"01237","longitude":"-73.302872","latitude":"42.570095","name":"Appletree Hill Organic Farm","website":"","facebook":"","twitter":"","tags":"baked-goods bedding plants canned preserved crafts woodworking dairy products eggs herbs fresh-fruits fresh-vegetables honey maple-products soap body-care"},{"type":"farm","street":"1150 West Street","city":"South Amherst ","state":"MA","zip":"01002","longitude":"-72.529185","latitude":"42.319161","name":"Atkins Farms Country Market","website":"www.atkinsfarms.com","facebook":"Atkins Farms Country Market","twitter":"","tags":"baked-goods bedding plants canned preserved coffee tea cut-flowers dairy products dry beans eggs fish seafood herbs fresh-fruits fresh-vegetables grains flour honey juices ciders maple-products mushrooms nuts poultry fowl prepared-foods red-meat non-poultry-meat tofu non-animal protein wine spirits beer hard-cider"},{"type":"farm","street":"495 Chicopee Row","city":"Groton","state":"MA","zip":"1450","longitude":"-71.544073","latitude":"42.638662","name":"Autumn Hills Orchard","website":"www.autumnhillsorchard.com","facebook":"https://www.facebook.com/pages/Autumn-Hills-Orchard/67274499610","twitter":"https://twitter.com/autumnhills","tags":"fresh-fruits maple-products"},{"type":"farm","street":"33 Bartlett Farm Road","city":"Nantucket","state":"MA","zip":"02554","longitude":"-70.133123","latitude":"41.256643","name":"Bartlett's Ocean View Farm","website":"www.bartlettsfarm.com","facebook":"https://www.facebook.com/Bartlett'sFarm","twitter":"https://www.twitter.com/BartlettsFarm","tags":"baked-goods bedding plants canned preserved coffee tea cut-flowers dairy products dry beans eggs fish seafood herbs fresh-fruits fresh-vegetables honey juices ciders maple-products mushrooms nursery-stock nuts poultry fowl prepared-foods red-meat non-poultry-meat soap body-care wine spirits beer hard-cider"},{"type":"farm","street":"15 Ward Street","city":"Ipswich","state":"MA","zip":"01938","longitude":"-70.833784","latitude":"42.673694","name":"Chicken Little Farm","website":"http://chickenlittlefarm.webs.com/","facebook":"https://www.facebook.com/ChickenLittleFarm","twitter":"","tags":"eggs fresh-vegetables poultry fowl"},{"type":"farm","street":"","city":"Truro","state":"MA","zip":"","longitude":"-70.057508","latitude":"41.984403","name":"Dave's Greens","website":"","facebook":"http://www.facebook.com/davesgreens","twitter":"","tags":"bedding plants canned preserved cut-flowers eggs herbs fresh-vegetables honey nursery-stock wild-harvested forest-products"},{"type":"farm","street":"582 George Hill Road","city":"South Lancaster","state":"MA","zip":"01561","longitude":"-71.700870","latitude":"42.449942","name":"George Hill Orchards","website":"www.yourfavoritefarm.com","facebook":"https://www.facebook.com/GeorgeHillOrchards","twitter":"","tags":"baked-goods canned preserved coffee tea fresh-fruits juices ciders prepared-foods"},{"type":"farm","street":"410 Skyline Trail","city":"Chester","state":"MA","zip":"1011","longitude":"-72.934729","latitude":"42.29833","name":"Jamesons High Meadow Farm","website":"","facebook":"","twitter":"","tags":""},{"type":"farm","street":"69 Beach Hill Road","city":"New Ashford","state":"MA","zip":"01237","longitude":"-73.2488101","latitude":"42.6140437","name":"Jennings Brook Farm","website":"","facebook":"maureen jennings","twitter":"","tags":"bedding plants crafts woodworking eggs herbs fresh-fruits fresh-vegetables honey juices ciders maple-products"},{"type":"farm","street":"209 Washington Street","city":"North Easton","state":"MA","zip":"02356","longitude":"-71.0884306","latitude":"42.0737109","name":"Langwater Farm","website":"www.langwaterfarm.com","facebook":"https://www.facebook.com/langwaterfarm/","twitter":"","tags":"canned preserved cut-flowers herbs fresh-fruits fresh-vegetables honey maple-products mushrooms"},{"type":"farm","street":"142 Marrett Rd, 12 Bacon Street","city":"Lexington","state":"MA","zip":"02421","longitude":"-71.230909","latitude":"42.445743","name":"Meadow Mist Farm ","website":"meadow-mist.com","facebook":"meadow mist farm lexington mass","twitter":"142 Marrett Rd","tags":"canned preserved cut-flowers dry beans eggs herbs fresh-fruits fresh-vegetables honey poultry fowl red-meat non-poultry-meat"},{"type":"farm","street":"500 Allen Avenue","city":"North Attleboro","state":"MA","zip":"02760","longitude":"-71.3584082","latitude":"41.9509075","name":"Miller's Family Farm","website":"www.millersfamilyfarm.net","facebook":"millers family farm","twitter":"","tags":"honey"},{"type":"farm","street":"9 Nobska Rd","city":"Woods Hole","state":"MA","zip":"02543","longitude":"-70.6599650","latitude":"41.5234110","name":"Nobska Farms, Inc.","website":"http://nobskafarms.com/","facebook":"https://www.facebook.com/pages/Nobska-Farms-Inc/365738883456610","twitter":"https://twitter.com/NobskaFarms/","tags":"bedding plants canned preserved fresh-vegetables"},{"type":"farm","street":"41 River Road","city":"Whately","state":"MA","zip":"01093","longitude":"-72.590481","latitude":"42.427147","name":"Nourse Farms","website":"www.noursefarms.com","facebook":"","twitter":"","tags":"fresh-fruits"},{"type":"farm","street":"122 Ferin Road","city":"Ashburnham","state":"MA","zip":"01430","longitude":"-71.9341540","latitude":"42.7010360","name":"Odd Pine Farm","website":"www.oddpinefarm.com","facebook":"","twitter":"","tags":""},{"type":"farm","street":"109 Elm Street","city":"Canton","state":"MA","zip":"02021","longitude":"-71.137662","latitude":"42.200748","name":"Pakeen Farm","website":"http://www.pakeenfarm.com","facebook":"https://www.facebook.com/PakeenFarm","twitter":"","tags":"baked-goods fresh-fruits fresh-vegetables honey maple-products prepared-foods"},{"type":"farm","street":"103 Cadmans /neck","city":"Westport","state":"MA","zip":"02790","longitude":"-71.065072","latitude":"41.561165","name":"Paradise Hill Farm","website":"","facebook":"Paradise Hill Farm","twitter":"Paradise Hill Farm","tags":"baked-goods bedding plants canned preserved cut-flowers dairy products eggs herbs fresh-fruits fresh-vegetables honey juices ciders maple-products nursery-stock soap body-care"},{"type":"farm","street":"Wheeler Road, in Verrill Farm Horse Stable","city":"Concord","state":"MA","zip":"01742","longitude":"-71.378431","latitude":"42.422589","name":"Pete and Jen's Backyard Birds","website":"www.peteandjensbackyardbirds.com","facebook":"https://www.facebook.com/peteandjen.backyardbirds","twitter":"https://twitter.com/Backyardbirds;   @backyardbirds","tags":"canned preserved eggs herbs fresh-vegetables grains flour maple-products poultry fowl red-meat non-poultry-meat soap body-care"},{"type":"farm","street":"1050 Broadmeadow Street","city":"Marlborough","state":"MA","zip":"01752","longitude":"-71.4932568","latitude":"42.3362604","name":"Spring Hill Farm","website":"http://www.cgg-usa.com/springhillfarm.html","facebook":"","twitter":"","tags":"fish seafood fresh-vegetables"},{"type":"farm","street":"64 Williams Street","city":"Upton","state":"MA","zip":"01568","longitude":"-71.6341376","latitude":"42.1713805","name":"Town Line Dairy Farm","website":"www.facebook.com/pages/Town-Line-Dairy-Farm/558566020827767","facebook":"","twitter":"","tags":"crafts woodworking dairy products eggs fresh-fruits fresh-vegetables maple-products red-meat non-poultry-meat"},{"type":"market","name":"Andover Farmers Market","website":"http://andoverfarmersmarket.com/","facebook":"https://www.facebook.com/andoverfarmersmarket/?view_public_for=153480551390115","twitter":"","street":"41 Central Street","city":"Andover","state":"MA","zip":"01810","longitude":"-71.143138","latitude":"42.653616","tags":"organic baked goods cheese crafts flowers eggs seafood herbs vegetables honey maple plants prepared-foods soap wine coffee beans fruits mushrooms"},{"type":"market","name":"Ashland Farmers Market","website":"http://www.ashlandfarmersmarket.org/","facebook":"https://www.facebook.com/AshlandMAFarmersMarket","twitter":"","street":"125 Front St","city":"Ashland","state":"MA","zip":"01721","longitude":"-71.461538","latitude":"42.260027","tags":"organic baked goods cheese crafts flowers eggs seafood herbs vegetables honey jams maple meat poultry soap wine coffee fruits mushrooms pet food"},{"type":"market","name":"Attleboro Farmers Market, inc","website":"http://www.attleborofarmersmarket.com","facebook":"AttleboroFarmersMarket@AttFrmMkt","twitter":"","street":"201 County Street","city":"Attleboro ","state":"MA","zip":"02703","longitude":"-71.299235","latitude":"41.937562","tags":"organic baked goods cheese crafts flowers eggs seafood herbs vegetables honey jams maple meat nuts plants poultry prepared-foods soap wine coffee fruits juices mushrooms pet food wild"},{"type":"market","name":"Billerica Farmers Market","website":"http://billericafarmersmarket.org","facebook":"Billerica Farmers Market","twitter":"","street":"25 Concord Road","city":"Billerica","state":"MA","zip":"01821","longitude":"-71.269999","latitude":"42.557646","tags":"baked goods cheese crafts flowers eggs seafood herbs vegetables honey meat plants prepared-foods soap wine coffee fruits"},{"type":"market","name":"Braintree Farmers Market","website":"http://www.braintreefarmersmarket.org","facebook":"https://www.facebook.com/braintreefarmersmarket/","twitter":"https://twitter.com/bfarmmarket","street":"1 JFK Memorial Dr","city":"Braintree  ","state":"MA","zip":"02184","longitude":"-71.004927","latitude":"42.206437","tags":"organic baked goods cheese flowers eggs seafood herbs vegetables honey jams maple meat nuts plants poultry prepared-foods soap coffee fruits grains juices pet food"},{"type":"market","name":"Brimfield at Hitchcock Free Academy","website":"http://www.hitchcockacademy.org","facebook":"","twitter":"","street":"Hitchcock Free Academy, a community center parking lot, at  2 Brookfield Rd.","city":"Brimfield","state":"MA","zip":"01010","longitude":"-72.199901","latitude":"42.122751","tags":"organic baked goods cheese crafts flowers eggs herbs vegetables honey jams maple meat plants poultry soap fruits mushrooms"},{"type":"market","name":"Brockton Farmers Market","website":"https://www.brocktonfarmersmarket.com/","facebook":"https://www.facebook.com/BrocktonFarmersMarket/","twitter":"https://twitter.com/BrocktonMarket","street":"45 School St","city":"Brockton","state":"MA","zip":"02301","longitude":"-71.018866","latitude":"42.082799","tags":"flowers vegetables honey plants soap fruits"},{"type":"market","name":"Brookline Farmers' Market","website":"https://www.brooklinefarmersmarket.com","facebook":"","twitter":"","street":"Centre Street West PArking Lot","city":"Brookline","state":"MA","zip":"02446","longitude":"-71.123782","latitude":"42.342190","tags":"organic baked goods cheese flowers eggs seafood vegetables jams meat plants poultry coffee fruits mushrooms"},{"type":"market","name":"Canal District Farmers Market ","website":"http://Canaldistrictfarmersmarket.com","facebook":"https://www.facebook.com/canaldistrictfarmersmarket","twitter":"https://twitter.com/Canaldistrict","street":"200 Harding Street","city":"Worcester","state":"MA","zip":"01604","longitude":"-71.797436","latitude":"42.256235","tags":"organic baked goods cheese crafts flowers eggs herbs vegetables honey jams maple meat plants poultry prepared-foods soap trees wine coffee fruits juices pet food wild"},{"type":"market","name":"Carver Farmers Market","website":"","facebook":"","twitter":"","street":"108 Main St.","city":"Carver","state":"MA","zip":"02330","longitude":"-70.769182","latitude":"41.888852","tags":"baked goods crafts flowers eggs seafood herbs vegetables honey jams meat plants poultry soap trees coffee fruits"},{"type":"market","name":"Chatham Farmer's Market","website":"","facebook":"https://www.Facebook.com/ChathamFarmer'sMarket","twitter":"","street":"1652 Main Street Rte 28","city":"Chatham","state":"MA","zip":"02633","longitude":"-69.962249","latitude":"41.676615","tags":"organic baked goods cheese flowers eggs seafood herbs vegetables honey jams maple meat plants poultry soap trees wine coffee fruits juices mushrooms"},{"type":"market","name":"City of North Adams Farmers' Market","website":"http://explorenorthadams.com/item/north-adams-farmers-market/","facebook":"https://www.facebook.com/NorthAdamsFarmersMarket/","twitter":"","street":"St. Anthony Municipal Parking Lot, at the intersection of Rte. 8 (Marshall St.) and St. Anthony Drive","city":"North Adams ","state":"MA","zip":"01247","longitude":"-73.112792","latitude":"42.700694","tags":"baked goods cheese crafts flowers eggs herbs vegetables honey jams maple meat poultry prepared-foods soap coffee fruits mushrooms pet food wild"},{"type":"market","name":"Dorchester/Dorchester House Farmers Market","website":"http://dothousehealth.org/","facebook":"DotHouse Health ","twitter":"","street":"1353 Dorchester Avenue","city":"Dorchester","state":"MA","zip":"02122","longitude":"-71.060126","latitude":"42.304202","tags":"organic herbs vegetables fruits"},{"type":"market","name":"East Boston Farmers Market - Summer/Early Fall","website":"https://external.ebnhc.org/en/food-access/farmers-market.html","facebook":"https://www.facebook.com/EastBostonFarmersMarket?fref=ts","twitter":"","street":"Across from 201 Border St.","city":"East Boston","state":"MA","zip":"02128","longitude":"-71.039467","latitude":"42.374945","tags":"organic baked goods cheese eggs seafood herbs vegetables honey meat poultry prepared-foods beans fruits grains juices mushrooms tofu"},{"type":"market","name":"East Boston Farmers On-line Market - Winter/Spring","website":"https://www.ebnhc.org/en/food-access/farmers-market.html","facebook":"https://www.facebook.com/EastBostonFarmersMarket?fref=ts","twitter":"","street":"250 Sumner street","city":"East Boston","state":"MA","zip":"02128","longitude":"-71.076514","latitude":"42.3313532","tags":"organic baked goods cheese eggs vegetables honey jams meat poultry prepared-foods soap beans fruits grains juices mushrooms tofu"},{"type":"market","name":"Easthampton Farmers & Makers Market","website":"https://easthamptonmarket.com/","facebook":"https://www.facebook.com/EasthamptonFarmersMarket","twitter":"","street":"50 Payson Ave","city":"Easthampton","state":"MA","zip":"01027","longitude":"-72.669638","latitude":"42.265189","tags":"baked goods cheese crafts flowers eggs seafood herbs vegetables honey jams maple meat nuts plants poultry prepared-foods soap wine coffee fruits grains juices mushrooms pet food wild"},{"type":"market","name":"Elm Street Market","website":"http://www.newtonma.gov/farmersmarket","facebook":"https://www.facebook.com/NewtonFarmersMarket","twitter":"https://twitter.com/newton_market (@newton_market)","street":"Elm Street ","city":"West Newton","state":"MA","zip":"02465","longitude":"-71.229493","latitude":"42.349361","tags":"organic baked goods cheese eggs herbs vegetables honey jams meat plants poultry prepared-foods soap coffee fruits juices pet food"},{"type":"market","name":"Great Falls Farmers Market, Turners Falls","website":"http://greatfallsfarmersmarketturners.blogspot.com/","facebook":"https://www.facebook.com/GreatFallsFarmersMarket","twitter":"","street":"Peskeomskut Park","city":"Turners Falls","state":"MA","zip":"01376","longitude":"-72.559612","latitude":"42.606069","tags":"baked goods crafts flowers eggs herbs vegetables honey jams maple meat plants prepared-foods soap fruits mushrooms"},{"type":"market","name":"Hingham Farmers Market, Inc.","website":"http://www.hinghamfarmersmarket.org","facebook":"https://www.facebook.com/pages/Hingham-Farmers-Market/129956870371803","twitter":"","street":"96 Otis Street","city":"Hingham","state":"MA","zip":"02043","longitude":"-70.888967","latitude":"42.247351","tags":"baked goods cheese crafts flowers eggs seafood herbs vegetables honey jams maple meat plants poultry prepared-foods soap trees wine coffee fruits juices mushrooms"},{"type":"market","name":"Hopkinton Farmers Market","website":"http://www.hopkintonfarmersmarket.com","facebook":"https://www.facebook.com/HopkintonFarmersMarket","twitter":"","street":"Main Street and Ash Street","city":"Hopkinton","state":"MA","zip":"01748","longitude":"-71.517770","latitude":"42.229299","tags":"organic baked goods cheese eggs herbs vegetables honey maple meat poultry prepared-foods fruits"},{"type":"market","name":"Lexington Farmers' Market","website":"https://www.lexingtonfarmersmarket.org/","facebook":"https://www.facebook.com/LexingtonFarmersMkt","twitter":"","street":"Worthen Road Practice Field","city":"Lexington","state":"MA","zip":"02421","longitude":"-71.235394","latitude":"42.444009","tags":"organic baked goods crafts flowers eggs seafood herbs vegetables honey jams maple meat plants poultry soap wine coffee fruits mushrooms"},{"type":"market","name":"Lexington Small Yet Mighty Winter Farmers Market","website":"http://www.lexingtonfarmersmarket.org/","facebook":"https://www.facebook.com/LexingtonFarmersMkt/","twitter":"","street":"739 Massachusetts Avenue","city":"LEXINGTON","state":"MA","zip":"02420","longitude":"-71.206748","latitude":"42.429242","tags":"baked goods crafts eggs seafood herbs vegetables honey jams maple meat poultry prepared-foods soap fruits"},{"type":"market","name":"Marshfield Farmer's Market","website":"https://marshfieldfair.org/farmers-market/","facebook":"https://www.facebook.com/MarshfieldFM/","twitter":"https://twitter.com/MarshfieldFM","street":"140 Main St  (Route 3A)","city":"Marshfield","state":"MA","zip":"02050","longitude":"-70.717317","latitude":"42.098148","tags":"organic baked goods cheese crafts flowers eggs seafood herbs vegetables honey jams maple meat nuts plants poultry prepared-foods soap coffee beans fruits grains juices pet food wild"},{"type":"market","name":"Mattapan Square  Farmers Market","website":"http://www.mattapanfoodandfitness.org","facebook":"https://www.facebook.com/pages/Mattapan-Square-Farmers-Market/132570930215702","twitter":"","street":"882 Cummins Hwy","city":"Mattapan","state":"MA","zip":"02126","longitude":"-71.076514","latitude":"42.3313532","tags":"organic baked goods flowers eggs seafood vegetables honey jams meat poultry prepared-foods soap fruits mushrooms wild"},{"type":"market","name":"Medford Farmers Market","website":"https://medfordfarmersmarket.org/","facebook":"https://www.facebook.com/MedfordFarmerMkt/","twitter":"https://twitter.com/medfordfarmmkt?lang=en","street":"2501 Mystic Valley Parkway","city":"Medford","state":"MA","zip":"02155","longitude":"-71.115435","latitude":"42.418530","tags":"baked goods crafts flowers eggs herbs vegetables honey jams maple meat nuts plants poultry prepared-foods wine coffee fruits"},{"type":"market","name":"Natick Winter Market","website":"http://www.natickfarmersmarekt.org","facebook":"","twitter":"","street":"Common Street","city":"Natick","state":"MA","zip":"01760","longitude":"-71.341206","latitude":"42.290237","tags":"baked goods cheese crafts eggs seafood herbs vegetables honey jams maple meat nuts poultry soap coffee fruits mushrooms wild"},{"type":"market","name":"Needham Farmers Market","website":"http://www.needhamfarmersmarket.org","facebook":"https://www.facebook.com/NeedhamFarmersMarket/","twitter":"","street":"Garrity Way","city":"Needham","state":"MA","zip":"02492","longitude":"-71.236446","latitude":"42.280988","tags":"baked goods crafts flowers eggs seafood herbs vegetables honey jams maple nuts plants coffee fruits mushrooms"},{"type":"market","name":"New Bedford Farmers Market- Brooklawn Park","website":"https://coastalfoodshed.org/","facebook":"https://www.facebook.com/massinmotionnewbedford/","twitter":"","street":"1997 Acushnet Ave.","city":"New Bedford ","state":"MA","zip":"02745","longitude":"-70.923644","latitude":"41.675431","tags":"baked goods flowers eggs seafood herbs vegetables honey jams meat poultry prepared-foods soap fruits"},{"type":"market","name":"New Bedford Farmers Market- Clasky Common Park","website":"https://coastalfoodshed.org/","facebook":"https://www.facebook.com/massinmotionnewbedford/","twitter":"","street":"1119 Pleasant St.","city":"New Bedford ","state":"MA","zip":"02740","longitude":"-70.928587","latitude":"41.644314","tags":"herbs vegetables soap fruits"},{"type":"market","name":"New Bedford Farmers Market- Downtown/Custom House Square","website":"https://coastalfoodshed.org/","facebook":"https://www.facebook.com/newbedfordfarmersmarket/","twitter":"","street":"466 Brock Ave","city":"New Bedford","state":"MA","zip":"02740","longitude":"-70.937913","latitude":"41.661303","tags":"baked goods cheese flowers eggs seafood herbs vegetables honey jams maple meat plants poultry prepared-foods soap fruits"},{"type":"market","name":"New Bedford Farmers Market- Indoor ","website":"https://coastalfoodshed.org/","facebook":"https://www.facebook.com/massinmotionnewbedford/","twitter":"","street":"101 West Rodney French Blvd","city":"New Bedford","state":"MA","zip":"02744","longitude":"-70.937913","latitude":"41.661303","tags":"baked goods cheese flowers eggs seafood vegetables honey jams maple meat poultry prepared-foods soap fruits mushrooms"},{"type":"market","name":"Oak Square Farmers Market","website":"","facebook":"www.facebook.com/oaksquarefarmersmarket","twitter":"","street":"640 Washington Street","city":"Brighton","state":"MA","zip":"02135","longitude":"-71.1691939","latitude":"42.3506821","tags":"baked goods cheese crafts eggs seafood herbs vegetables honey jams maple meat plants poultry prepared-foods soap wine coffee fruits"},{"type":"market","name":"Petersham Friday Market","website":"http://www.petershamcommon.com/fridaymarket.htm","facebook":"","twitter":"","street":"","city":"Petersham","state":"MA","zip":"01366","longitude":"-72.186669","latitude":"42.488744","tags":"baked goods crafts flowers eggs herbs vegetables honey jams maple plants poultry soap mushrooms"},{"type":"market","name":"Roslindale Village Main Street Winter Farmers Market","website":"http:// Roslindale.net","facebook":"https://www.facebook.com/roslindalevillagemainstreet/","twitter":"","street":"32 Birch St","city":"Roslindale","state":"MA","zip":"02131","longitude":"-71.130709","latitude":"42.286072","tags":"crafts meat poultry prepared-foods soap wine mushrooms"},{"type":"market","name":"Salem Farmers Market","website":"http://www.salemfarmersmarket.org","facebook":"www.facebook.com/SalemMAFarmersMarket","twitter":"","street":"25 Memorial Drive","city":"Salem","state":"MA","zip":"01970","longitude":"-70.880679","latitude":"42.527978","tags":"organic baked goods cheese flowers eggs seafood herbs vegetables honey jams maple plants poultry prepared-foods soap wine coffee fruits"},{"type":"market","name":"Somerville Mobile Farmers' Market - Council on Aging","website":"","facebook":"www.facebook.com/shapeupsomerville","twitter":"@shapeupsville","street":"167 Holland Street","city":"Somerville","state":"MA","zip":"02144","longitude":"-71.125686","latitude":"42.400980","tags":"vegetables fruits"},{"type":"market","name":"Somerville Mobile Farmers' Market - East Somerville Community School","website":"","facebook":"www.facebook.com/shapeupsomerville","twitter":"@shapeupsville","street":"50 Cross Street","city":"Somerville","state":"MA","zip":"02145","longitude":"-71.087099","latitude":"42.385778","tags":"vegetables fruits"},{"type":"market","name":"Somerville Mobile Farmers' Market - Mystic","website":"","facebook":"facebook.com/shapeupsomerville","twitter":"twitter.com/shapeupsville","street":"530 Mystic Avenue","city":"Somerville","state":"MA","zip":"02145","longitude":"-71.091856","latitude":"42.396251","tags":"organic herbs vegetables fruits"},{"type":"market","name":"Somerville Mobile Farmers' Market - North Street","website":"","facebook":"facebook.com/shapeupsomerville","twitter":"twitter.com/shapeupsville","street":"24 North Street","city":"Somerville","state":"MA","zip":"02144","longitude":"-71.131331","latitude":"42.407206","tags":"herbs vegetables fruits"},{"type":"market","name":"STCC Farmers' Market","website":"","facebook":"https://www.facebook.com/pages/Springfield-Technical-Community-College/109746082384737?fref=ts","twitter":"","street":"One Armory Square","city":"Springfield","state":"MA","zip":"01102","longitude":"-72.581067","latitude":"42.108668","tags":"baked goods crafts flowers herbs vegetables honey jams maple meat plants prepared-foods soap coffee fruits"},{"type":"market","name":"The Farm Market at Mill No. 5","website":"https://millno5.com/the-farm-market/","facebook":"https://www.facebook.com/thefarmmarket/","twitter":"","street":"250 Jackson Street, 5th Floor","city":"Lowell","state":"MA","zip":"01852","longitude":"-71.312805","latitude":"42.641166","tags":"organic baked goods cheese eggs vegetables honey jams maple meat nuts coffee fruits mushrooms pet food wild"},{"type":"market","name":"The Orange Farmers Market","website":"","facebook":"https://www.facebook.com/OrangeFarmersMarket","twitter":"","street":" 135 East Main st","city":"Orange","state":"MA","zip":"01364","longitude":"-72.3033449","latitude":"42.5907340","tags":"baked goods cheese crafts flowers eggs herbs vegetables jams maple meat plants prepared-foods fruits juices"},{"type":"market","name":"Union Square Farmers Market","website":"http://www.unionsquaremain.org","facebook":"https://www.facebook.com/unionsquaremarkets/","twitter":"https://twitter.com/unionsquarefm","street":"66-70 Union Square","city":"Somerville","state":"MA","zip":"02143","longitude":"-71.094533","latitude":"42.379761","tags":"organic baked goods cheese flowers eggs seafood herbs vegetables honey jams maple meat nuts plants poultry prepared-foods soap wine coffee beans fruits grains juices mushrooms pet food tofu wild"},{"type":"market","name":"Wayland Winter Farmers' Market","website":"https://www.russellsgc.com/farmersmarket","facebook":"https://www.facebook.com/pages/Wayland-Summer-Farmers-Market/216269755070032","twitter":"Wayland Wint/Sum Mkt","street":"397 Boston Post Road","city":"Wayland","state":"MA","zip":"01778","longitude":"-71.369892","latitude":"42.363071","tags":"organic baked goods cheese flowers eggs seafood herbs vegetables honey jams maple meat nuts poultry prepared-foods wine coffee beans fruits grains juices mushrooms pet food tofu"},{"type":"market","name":"Wellfleet Farmers' Market","website":"http://www.wellfleetfarmersmarket.com/","facebook":"https://www.facebook.com/WellfleetFarmersMarket/","twitter":"","street":"200 Main Street","city":"Wellfleet","state":"MA","zip":"02667","longitude":"-70.027995","latitude":"41.939238","tags":"organic baked goods cheese crafts flowers eggs herbs vegetables honey jams meat plants poultry prepared-foods soap trees coffee fruits juices mushrooms"},{"type":"market","name":"Westfield Farmers Market","website":"http://www.westfieldfarmersmarket.org","facebook":"Westfieldfarmersmarket","twitter":"","street":"36 Court St","city":"Westfield ","state":"MA","zip":"01085","longitude":"-72.751662","latitude":"42.119742","tags":"baked goods cheese crafts flowers eggs vegetables honey jams poultry fruits"},{"type":"market","name":"Westminster Farmers' Market","website":"http://www.westminstermafarmersmarket.com/","facebook":"https://www.facebook.com/pages/Westminster-Farmers-Market/133750303302808?ref=hl","twitter":"","street":"21-33 Academy St. (Town Common)","city":"Westminster","state":"MA","zip":"01473","longitude":"-71.906161","latitude":"42.541635","tags":"organic baked goods crafts flowers eggs herbs vegetables honey jams maple meat plants poultry prepared-foods soap fruits juices pet food"},{"type":"market","name":"Weymouth Farmers Market","website":"https://www.weymouth.ma.us/farmers-market","facebook":"https://www.facebook.com/weyfarmersmarketprograms","twitter":"","street":"1 Wildcat Way","city":"Weymouth","state":"MA","zip":"02190","longitude":"-70.941897","latitude":"42.181987","tags":"baked goods crafts flowers vegetables honey prepared-foods soap fruits"},{"type":"market","name":"Winchester Farmers Market","website":"http://winchesterfarmersmarket.org","facebook":"winchfarmmkt","twitter":"winchfarmmkt","street":"Larawy Rd","city":"Winchester ","state":"MA","zip":"01890","longitude":"-71.137946","latitude":"42.452024","tags":"organic baked goods cheese crafts flowers eggs seafood herbs vegetables honey jams maple meat plants poultry prepared-foods soap coffee fruits juices pet food"}]
