[{"type":"farm","street":"13433 Ocean Gateway (US Route 50)","city":"Wye Mills","state":"MD","zip":"21679","longitude":"-76.062360","latitude":"38.936137","name":"A. H. Herb'n Craft Farm","website":"","facebook":"","twitter":"","tags":"bedding plants eggs herbs fresh-fruits fresh-vegetables honey nursery-stock nuts poultry fowl soap body-care wild-harvested forest-products"},{"type":"farm","street":"3400 Bryan Point Road","city":"Accokeek","state":"MD","zip":"20607","longitude":"-77.060180","latitude":"38.691496","name":"Accokeek Foundation - Ecosystem Farm Market","website":"www.accokeekfoundation.org","facebook":"www.facebook.com/accokeekfoundation","twitter":"twitter.com/Accokeek","tags":"eggs herbs fresh-fruits fresh-vegetables honey"},{"type":"farm","street":"1217 Perrys Corner Rd","city":"Grasonville","state":"MD","zip":"21638","longitude":"-76.193302","latitude":"38.935374","name":"Ana-Gail Farms LLC","website":"www.anagailfarms.com","facebook":"@anagailfarms","twitter":"","tags":""},{"type":"farm","street":"1015 Baugher Road","city":"Westminster","state":"MD","zip":"21158","longitude":"-77.0502021","latitude":"39.6020820","name":"Baugher's Orchard & Farm","website":"www.baughers.com","facebook":"baughers","twitter":"","tags":"baked-goods bedding plants canned preserved crafts woodworking dairy products eggs fresh-fruits fresh-vegetables honey juices ciders maple-products"},{"type":"farm","street":"22222 Davis Mill Road","city":"Germantown","state":"MD","zip":"20876","longitude":"-77.223226","latitude":"39.221380","name":"Butler's Orchard","website":"http://www.butlersorchard.com/","facebook":"https://www.facebook.com/ButlersOrchard1","twitter":"https://twitter.com/ButlersOrchard","tags":"baked-goods bedding plants canned preserved coffee tea dairy products eggs herbs fresh-fruits fresh-vegetables honey maple-products nursery-stock nuts prepared-foods soap body-care"},{"type":"farm","street":"18235 Clagett Landing Road","city":"Upper Marlboro","state":"MD","zip":"20774","longitude":"-76.687062","latitude":"38.873444","name":"Cabin Creek Heritage Farm","website":"www.cabincreekheritagefarm.com","facebook":"www.facebook.com/cabincreekheritagefarm","twitter":"twitter.com   @PasturedFarmer","tags":"baked-goods canned preserved cut-flowers eggs herbs fresh-fruits fresh-vegetables poultry fowl prepared-foods red-meat non-poultry-meat soap body-care"},{"type":"farm","street":"2857  Davidsonville Rd","city":"Davidsonville","state":"MD","zip":"21035","longitude":"0.437050","latitude":"0.289763","name":"Chase's Produce","website":"","facebook":"","twitter":"","tags":"fresh-fruits fresh-vegetables"},{"type":"farm","street":"12600 Piedmont Road ","city":"Clarksburg","state":"MD","zip":"20871","longitude":"-77.2609970","latitude":"39.2434310","name":"Citizens of Earth","website":"thecitizensofearth.org ","facebook":"https://www.facebook.com/Citizens-of-Earth-466859626793595/","twitter":"","tags":"fresh-fruits fresh-vegetables"},{"type":"farm","street":"10500 Clarksville Pike","city":"Ellicott CIty","state":"MD","zip":"21042","longitude":"-76.876279","latitude":"39.235883","name":"Clark's Elioak Farm","website":"http://clarklandfarm.com/","facebook":"https://www.facebook.com/ClarksProduce","twitter":"","tags":"eggs fresh-vegetables poultry fowl"},{"type":"farm","street":"16290 Spielman Road","city":"Williamsport ","state":"MD","zip":"21795","longitude":"-77.8089000","latitude":"39.5638270","name":"Columbine Manor","website":"cm-longhornbeef.com","facebook":"","twitter":"","tags":"nuts"},{"type":"farm","street":"717 MULLER RD","city":"WESTMINSTER","state":"MD","zip":"21157","longitude":"-77.022237","latitude":"39.475424","name":"Cultivale Farm","website":"www.cultivale.com","facebook":"https://www.facebook.com/cultivale","twitter":"","tags":"eggs red-meat non-poultry-meat"},{"type":"farm","street":"150 Rockland Road","city":"Westminster","state":"MD","zip":"21158","longitude":"-77.048689","latitude":"39.579598","name":"Evermore Farm","website":"www.evermorefarm.com","facebook":"www.facebook/evermorefarm","twitter":"https://www.twitter.com/evermorefarm","tags":"eggs poultry fowl red-meat non-poultry-meat"},{"type":"farm","street":"5501 Detrick Road","city":"Mt. Airy","state":"MD","zip":"21771","longitude":"-77.240356","latitude":"39.382212","name":"Gaver Farm, LLC","website":"www.gaverfarm.com","facebook":"www.facebook.com/gaverfarm","twitter":"","tags":"baked-goods canned preserved crafts woodworking fresh-fruits fresh-vegetables honey soap body-care"},{"type":"farm","street":"2916 Whitehaven Road","city":"Tyaskin","state":"MD","zip":"21865","longitude":"-75.7951050","latitude":"38.2744420","name":"Habanera Farm, LLC","website":"http://www.habanerafarm.com/","facebook":"https://www.facebook.com/habanerafarm","twitter":"","tags":"coffee tea"},{"type":"farm","street":"24801 Burnt Hill Road","city":"Clarksburg","state":"MD","zip":"20871","longitude":"-77.257396","latitude":"39.264681","name":"Hilton's Farm & Garden","website":"","facebook":"www.facebook.com/HiltonsFarmandGarden","twitter":"","tags":"baked-goods bedding plants crafts woodworking cut-flowers eggs herbs fresh-vegetables soap body-care"},{"type":"farm","street":"7033 Ed Sears Rd","city":"Dickerson","state":"MD","zip":"20842","longitude":"-77.418607","latitude":"39.260721","name":"Jehovah Jireh Farm","website":"www.Jehovahjirehfarm.com","facebook":"","twitter":"","tags":"eggs honey pet-food poultry fowl red-meat non-poultry-meat soap body-care"},{"type":"farm","street":"8305 Bolivar Road","city":"Middletown","state":"MD","zip":"21769","longitude":"-77.6029605","latitude":"39.4585804","name":"Karen's Kountry Store","website":"www.southmountaincreamery.com","facebook":"www.facebook.com/smcdairy","twitter":"www.twitter.com/southmtcreamery","tags":"canned preserved coffee tea dairy products eggs fish seafood herbs fresh-vegetables honey juices ciders maple-products poultry fowl red-meat non-poultry-meat"},{"type":"farm","street":"2733 Buckeystown Pike","city":"Adamstown","state":"MD","zip":"21710","longitude":"-77.442373","latitude":"39.310287","name":"Nick's Organic Farm-Buckeystown","website":"www.nicksorganicfarm.com","facebook":"","twitter":"","tags":"eggs grains flour poultry fowl red-meat non-poultry-meat"},{"type":"farm","street":"8565 Horseshoe Lane","city":"Potomac","state":"MD","zip":"20854","longitude":"-77.2178494","latitude":"38.9966381","name":"Nick's Organic Farm-Potomac","website":"www.nicksorganicfarm.com","facebook":"","twitter":"","tags":"eggs grains flour poultry fowl red-meat non-poultry-meat"},{"type":"farm","street":"4657 Skinners Run Road","city":"Hurlock","state":"MD","zip":"21643","longitude":"-75.8577030","latitude":"38.6853330","name":"Pop's Old Place","website":"www.PopsOldPlace.com","facebook":"Pop's Old Place","twitter":"","tags":"poultry fowl red-meat non-poultry-meat"},{"type":"farm","street":"28600 Ridge Rd","city":"Mount Airy","state":"MD","zip":"21771","longitude":"-77.194802","latitude":"39.327127","name":"Rock Hill Orchard","website":"http://www.rockhillorchard.com","facebook":"https://www.facebook.com/rockhillorchard/?fref=ts","twitter":"@rockhillorchard","tags":"baked-goods bedding plants canned preserved cut-flowers dairy products eggs herbs fresh-fruits fresh-vegetables honey juices ciders maple-products poultry fowl red-meat non-poultry-meat"},{"type":"farm","street":"5594 Norrisville Rd","city":"White Hall","state":"MD","zip":"21161","longitude":"-76.547311","latitude":"39.721081","name":"Shaw Orchards","website":"www.shaworchards.com","facebook":"https://www.facebook.com/shaworchards","twitter":"","tags":"baked-goods canned preserved crafts woodworking cut-flowers fresh-fruits fresh-vegetables honey juices ciders maple-products nuts"},{"type":"farm","street":"3017 Klej Grange Rd","city":"Pocomoke City","state":"MD","zip":"21851","longitude":"-75.456314","latitude":"38.097410","name":"Shimar Farms","website":"","facebook":"Shi-Mar Farms","twitter":"","tags":"grains flour red-meat non-poultry-meat"},{"type":"farm","street":"8139 Broadneck Road","city":"Chestertown","state":"MD","zip":"21620","longitude":"-76.125663","latitude":"39.200861","name":"Tag Along Alpacas, LLC","website":"www.tagalongalpacas.com","facebook":"https://www.facebook.com/tag.alpacas","twitter":"","tags":""},{"type":"farm","street":"1130 Martin Drive","city":"Westminster","state":"MD","zip":"21157","longitude":"-76.956602","latitude":"39.598136","name":"Thorne Farm","website":"http://www.thornefarm.com","facebook":"https://www.facebook.com/thornefarm","twitter":"","tags":"bedding plants eggs"},{"type":"farm","street":"3621 Church Hill Road, Church Hill, MD 21623","city":"Church Hill","state":"MD","zip":"21623","longitude":"-76.0071553","latitude":"39.1262217","name":"Unity Church Hill","website":"http://unitynursery.com/","facebook":"https://www.facebook.com/unitychurchhill.nursery","twitter":"","tags":"canned preserved cut-flowers herbs fresh-fruits fresh-vegetables honey maple-products nursery-stock soap body-care"},{"type":"farm","street":"661 west watersville rd","city":"mount airy","state":"MD","zip":"21771","longitude":"-77.1138157","latitude":"39.3590151","name":"Wagon Wheel Ranch","website":"www.wagonwheelranch.org","facebook":"","twitter":"","tags":"eggs pet-food poultry fowl red-meat non-poultry-meat"},{"type":"farm","street":"930 Whitelock Street","city":"Baltimore","state":"MD","zip":"21217","longitude":"-76.634006","latitude":"39.314492","name":"Whitelock Community Farm ","website":"www.whitelockfarm.org","facebook":"","twitter":"","tags":"fresh-vegetables"},{"type":"farm","street":"10720 Dern Road","city":"Emmitsburg","state":"MD","zip":"21727","longitude":"-77.2919250","latitude":"39.6551050","name":"Whitmore Farm","website":"www.whitmorefarm.com","facebook":"","twitter":"","tags":"eggs fresh-vegetables pet-food poultry fowl red-meat non-poultry-meat"},{"type":"farm","street":"8109 Telegraph Rd","city":"Severn","state":"MD","zip":"21144","longitude":"-76.691217","latitude":"39.112864","name":"Willow Oak Flower & Herb Farm","website":"www.willowoakherbs.com","facebook":"https://www.facebook.com/pages/Willow-Oak-flower-and-Herb-Farm/240128883193?v=info","twitter":"","tags":"bedding plants coffee tea crafts woodworking cut-flowers eggs herbs fresh-fruits fresh-vegetables honey nursery-stock soap body-care wild-harvested forest-products"},{"type":"market","name":"Bel Air Farmers' Market","website":"http://www.BelAirFarmersMarket.com","facebook":"BelAir Farmers Market","twitter":"@belairfm","street":"2 South Bond Street","city":"Bel Air","state":"MD","zip":"21014","longitude":"-76.351011","latitude":"39.535284","tags":"organic baked goods cheese crafts flowers eggs herbs vegetables honey jams maple meat plants poultry prepared-foods soap trees wine coffee fruits mushrooms pet food"},{"type":"market","name":"Bethesda Central Farm Market","website":"http://www.centralfarmmarkets.com","facebook":"www.facebook.com/CentralFarmMarkets","twitter":"@CentralFarmMKTs","street":"7600 Arlington Road","city":"Bethesda ","state":"MD","zip":"20814","longitude":"-77.099890","latitude":"38.986761","tags":"organic baked goods cheese crafts flowers eggs seafood herbs vegetables honey jams meat nuts plants poultry prepared-foods soap wine coffee fruits grains juices mushrooms pet food wild"},{"type":"market","name":"BMI Farmers' Market","website":"http://www.thebmi.org/programs-events/bmi-farmers-market/","facebook":"https://www.facebook.com/BaltimoreMuseumofIndustry/","twitter":"https://twitter.com/BMIatWork","street":"1415 Key Highway","city":"Baltimore","state":"MD","zip":"21230","longitude":"-76.601326","latitude":"39.273864","tags":"baked goods cheese crafts flowers eggs seafood vegetables jams meat poultry prepared-foods soap wine coffee fruits"},{"type":"market","name":"Bowie Farmers' Market","website":"http://www.cityofbowie.org/103/Farmers-Market","facebook":"https://www.facebook.com/BowieFarmersMarket/","twitter":"","street":"15200 Annapolis Road ","city":"Bowie","state":"MD","zip":"20715","longitude":"-76.741902","latitude":"38.978320","tags":"baked goods crafts flowers eggs herbs vegetables honey jams maple meat plants poultry prepared-foods soap coffee fruits pet food"},{"type":"market","name":"California Farmers Market","website":"https://www.visitstmarysmd.com/food-drink/detail/california-farmers-market","facebook":"https://www.facebook.com/CaliforniaBAEFarmersMarket","twitter":"","street":"22810 Three Notch Road","city":"California","state":"MD","zip":"20619","longitude":"-76.499596","latitude":"38.294524","tags":"organic baked goods crafts flowers eggs herbs vegetables honey jams meat plants poultry prepared-foods wine fruits"},{"type":"market","name":"CMS Farmers Market","website":"","facebook":"","twitter":"","street":"7500 Security Blvd.","city":"Woodlawn","state":"MD","zip":"21244","longitude":"-76.764414","latitude":"39.316055","tags":"baked goods cheese flowers eggs herbs vegetables honey jams nuts poultry prepared-foods coffee fruits juices"},{"type":"market","name":"Crossroads Farmers Market","website":"https://www.crossroadscommunityfoodnetwork.org/farmers-market/","facebook":"https://www.facebook.com/CrossroadsFarmersMarket/","twitter":"@CrossroadsNtwk","street":"Anne St. at University Blvd. E","city":"Takoma Park","state":"MD","zip":"20912","longitude":"-76.990169","latitude":"38.990479","tags":"organic baked goods crafts flowers eggs herbs vegetables honey jams meat plants prepared-foods coffee fruits grains juices"},{"type":"market","name":"Druid Hill Farmers' Market","website":"http://www.druidhillmkt.org","facebook":"https://www.facebook.com/Druid-Hill-Farmers-Market-196200720417576/","twitter":"https://twitter.com/DruidHillMkt","street":"3100 Swann Drive","city":"Baltimore","state":"MD","zip":"21217","longitude":"-76.645847","latitude":"39.317944","tags":"organic baked goods crafts eggs herbs vegetables honey jams nuts plants prepared-foods soap wine fruits juices"},{"type":"market","name":"Greenbelt Farmers Market","website":"https://greenbeltfarmersmarket.org","facebook":"https://www.facebook.com/GreenbeltFarmersMarket/","twitter":"https://twitter.com/greenbeltfm","street":"25 Crescent Road","city":"Greenbelt","state":"MD","zip":"20770","longitude":"-76.877296","latitude":"39.001146","tags":"organic baked goods cheese flowers eggs seafood herbs vegetables honey jams meat nuts plants poultry prepared-foods soap wine coffee fruits juices mushrooms"},{"type":"market","name":"Hereford Farm Market","website":"","facebook":"@herefordfarmmarket","twitter":"","street":"17004 York Rd ","city":"Parkton","state":"MD","zip":"","longitude":"-76.644722","latitude":"39.4668834","tags":"organic baked goods cheese crafts flowers eggs herbs vegetables honey jams meat plants poultry prepared-foods soap coffee fruits mushrooms wild"},{"type":"market","name":"Home Grown Farm Market","website":"http://homegrownfarmmarket.webs.com","facebook":"https://www.facebook.com/homegrownfarmmarket","twitter":"","street":"21078 Three Notch Road","city":"Lexington Park ","state":"MD","zip":"20653","longitude":"-76.420927","latitude":"38.247929","tags":"organic baked goods cheese crafts flowers eggs herbs vegetables honey jams meat plants poultry soap wine coffee fruits"},{"type":"market","name":"Hyattsville Farmers Market","website":"http://www.hyattsville.org/farmersmarket","facebook":"www.facebook.com/hyattsville-farmers-market","twitter":"","street":"4310 Gallatin Street","city":"Hyattsville","state":"MD","zip":"20781","longitude":"-76.941854","latitude":"38.952822","tags":"baked goods cheese eggs herbs vegetables honey jams meat poultry soap coffee fruits mushrooms wild"},{"type":"market","name":"Kensington Farmers Market","website":"http://www.ExploreKensington.com ","facebook":"","twitter":"","street":"Kensington train station parking lot  ","city":"Kensington","state":"MD","zip":"20895","longitude":"-77.073728","latitude":"39.026476","tags":"organic baked goods cheese flowers eggs seafood vegetables honey meat plants poultry prepared-foods wine coffee fruits juices mushrooms tofu wild"},{"type":"market","name":"La Plata Farmers Market - Saturday","website":"https://townoflaplata.org/farmersmarket","facebook":"https://www.facebook.com/LaPlataFarmersMarket/","twitter":"","street":"209 Washington Ave","city":"La Plata","state":"MD","zip":"20646","longitude":"-76.978699","latitude":"38.531647","tags":"baked goods crafts flowers eggs seafood herbs vegetables honey jams maple meat plants poultry prepared-foods soap trees wine coffee beans fruits juices"},{"type":"market","name":"Middletown Farmers' Market","website":"http://www.middletownmdfarmersmarket.com","facebook":"https://www.facebook.com/middletownmdfarmersmarket","twitter":"http://www.twitter.com/mtownfarmersmkt","street":"12 S Church St","city":"Middletown","state":"MD","zip":"21769","longitude":"-77.545310","latitude":"39.441867","tags":"organic baked goods cheese crafts flowers eggs herbs vegetables honey jams meat plants poultry prepared-foods soap wine fruits pet food"},{"type":"market","name":"Milk Lady Derwood Fall 2020 Pickup/Delivery","website":"https://www.milkladymarkets.org/derwood-market.html","facebook":"https://www.facebook.com/MilkladyFarmersMarkets/","twitter":"https://twitter.com/milkladymarkets","street":"16501 Redland Road","city":"Rockville","state":"MD","zip":"20855","longitude":"-77.150329","latitude":"39.126727","tags":"baked goods cheese flowers eggs herbs vegetables honey jams maple meat nuts plants poultry prepared-foods soap coffee fruits juices"},{"type":"market","name":"Milk Lady Derwood Farmers Market","website":"https://www.milkladymarkets.org/derwood-market.html","facebook":"https://www.facebook.com/MilkladyFarmersMarkets/","twitter":"https://twitter.com/milkladymarkets","street":"16501 Redland Road","city":"Rockville","state":"MD","zip":"20855","longitude":"-77.150144","latitude":"39.126885","tags":"baked goods cheese crafts flowers eggs herbs vegetables honey jams maple meat nuts plants poultry prepared-foods soap coffee fruits juices"},{"type":"market","name":"Milk Lady Shady Grove Farmers Market","website":"https://www.milkladymarkets.org/shady-grove-market","facebook":"https://www.facebook.com/MilkladyFarmersMarkets","twitter":"https://twitter.com/milkladymarkets","street":"9601 Medical Center Drive","city":"Rockville","state":"MD","zip":"20850","longitude":"-77.199488","latitude":"39.104422","tags":"organic baked goods cheese crafts flowers eggs herbs vegetables honey jams maple meat nuts plants poultry prepared-foods soap wine coffee fruits juices pet food"},{"type":"market","name":"Mountain Fresh Oakland Farmers Market","website":"http://www.MountainFresh.org","facebook":"https://www.facebook.com/mountainfreshfarmersmarket","twitter":"","street":"5 Town Park Lane","city":"Oakland","state":"MD","zip":"21550","longitude":"-79.409554","latitude":"39.408747","tags":"baked goods cheese crafts flowers eggs herbs vegetables honey jams maple meat nuts plants prepared-foods soap trees beans fruits grains mushrooms pet food wild"},{"type":"market","name":"Myersville Farmers Market","website":"http://www.myersvillefarmersmarket.com","facebook":"https://www.facebook.com/myersvillefarmersmarket","twitter":"","street":"301 Main Street","city":"Myersville","state":"MD","zip":"21773","longitude":"-77.565240","latitude":"39.505519","tags":"baked goods cheese crafts flowers eggs herbs vegetables honey jams meat plants poultry prepared-foods soap wine fruits wild"},{"type":"market","name":"North St. Mary's County Farmers Market","website":"https://www.visitstmarysmd.com/food-drink/detail/north-st.-marys-county-farmers-market","facebook":"","twitter":"","street":"37600 New Market Turner Road","city":"Charlotte Hall","state":"MD","zip":"20622","longitude":"-76.775630","latitude":"38.473539","tags":"baked goods crafts flowers eggs vegetables honey jams plants prepared-foods soap trees wine beans fruits"},{"type":"market","name":"Oakcrest Farmers Market","website":"http://Foodjusticecoalition.com","facebook":"https://www.facebook.com/oakcrestfarmersmarket","twitter":"https://twitter.com/oakcrest_market","street":"1300 Capitol Heights Blvd","city":"Capitol Heights","state":"MD","zip":"20743","longitude":"-76.9185759","latitude":"38.8708398","tags":"baked goods crafts eggs vegetables prepared-foods soap fruits juices"},{"type":"market","name":"Ocean Pines Farmers & Artisans Market","website":"http://www.oceanpines.org/amenities/ocean-pines-farmers-and-artisans-market/","facebook":"https://www.facebook.com/OceanPinesFarmersArtisansMarketplace/","twitter":"https://twitter.com/OPFarmersMkt","street":"239 Ocean Parkway","city":"Ocean Pines ","state":"MD","zip":"21811","longitude":"-75.1600720","latitude":"38.3992566","tags":"organic baked goods cheese crafts flowers eggs seafood herbs vegetables honey jams maple meat nuts plants poultry prepared-foods soap trees wine coffee beans fruits grains juices mushrooms pet food tofu wild"},{"type":"market","name":"Pike Central Farm Market","website":"http://www.centralfarmmarkets.com","facebook":"www.facebook.com/CentralFarmMarkets","twitter":"@CentralFarmMKTs","street":"910 Rose Avenue","city":"North Potomac","state":"MD","zip":"20852","longitude":"-77.117929","latitude":"39.049352","tags":"organic baked goods cheese flowers eggs seafood herbs vegetables honey jams meat nuts plants poultry prepared-foods soap trees wine coffee fruits grains mushrooms pet food wild"},{"type":"market","name":"Riverdale Park Farmers Market","website":"","facebook":"https://www.facebook.com/RPFMarket","twitter":"https://twitter.com/rpfm","street":"4650 Queensbury Road","city":"Riverdale Park","state":"MD","zip":"20737","longitude":"-76.935311","latitude":"38.962979","tags":"organic baked goods cheese crafts flowers eggs seafood herbs vegetables honey meat plants poultry prepared-foods soap wine fruits juices mushrooms pet food wild"},{"type":"market","name":"Rockville Farmers Market","website":"http://www.rockvillemd.gov/farmers","facebook":"facebook.com/RockvilleFarmersMarket","twitter":"","street":"Route 28 & Monroe Street","city":"Rockville","state":"MD","zip":"20850","longitude":"-77.1492295","latitude":"39.0819115","tags":"baked goods cheese flowers eggs herbs vegetables honey jams meat plants poultry prepared-foods soap wine coffee fruits juices mushrooms pet food"},{"type":"market","name":"St. Michaels Farmers Market","website":"","facebook":"https://www.facebook.com/loveyourfarmer/","twitter":"","street":"204 S Talbot St","city":"St. Michaels","state":"MD","zip":"21663","longitude":"-76.225202","latitude":"38.785161","tags":"organic baked goods cheese flowers eggs seafood herbs vegetables honey jams meat plants poultry prepared-foods wine coffee beans fruits mushrooms"},{"type":"market","name":"The Berlin Farmers Market","website":"https://www.berlinmainstreet.com/farmersmarket/","facebook":"https://www.facebook.com/theberlinfarmersmarket","twitter":"","street":"Pitts Street and Commerce Street","city":"Berlin ","state":"MD","zip":"21811","longitude":"-75.219388","latitude":"38.325383","tags":"organic baked goods cheese crafts flowers eggs seafood herbs vegetables honey jams plants prepared-foods soap wine coffee fruits mushrooms wild"},{"type":"market","name":"The Capital Market of 20743","website":"https://www.instagram.com/thecapitalmarket20743","facebook":"https://www.facebook.com/thecapitalmarket20743","twitter":"","street":"111 Capitol Heights Blvd","city":"Capitol Heights","state":"MD","zip":"20743","longitude":"-76.913335","latitude":"38.887555","tags":"crafts herbs vegetables prepared-foods soap fruits juices"},{"type":"market","name":"The Farmers Market at Maryland","website":"http://farmersmarket.umd.edu","facebook":"https://www.facebook.com/farmersmarket.umd/","twitter":"https://twitter.com/farmersmarketum","street":"3900 Campus Drive","city":"College Park ","state":"MD","zip":"20742","longitude":"-76.947513","latitude":"38.985968","tags":"baked goods cheese crafts flowers eggs herbs vegetables honey jams meat plants poultry prepared-foods soap wine coffee fruits juices mushrooms"},{"type":"market","name":"Urbana Library Farmers' Market","website":"","facebook":"https://www.facebook.com/UrbanaLibraryFarmersMarket/","twitter":"","street":"9020 Amelung Street","city":"Frederick","state":"MD","zip":"21704","longitude":"-77.354470","latitude":"39.331636","tags":"baked goods crafts flowers eggs herbs vegetables honey jams meat plants poultry prepared-foods soap coffee fruits pet food"}]
