[{"type":"farm","street":"6550 Cowboy Trail","city":"Las Vegas","state":"NV","zip":"89131","longitude":"-115.2223867","latitude":"36.2807076","name":"Cowboy Trail Farm Indoor Farm Stand","website":"www.cowboytrailfarms.com","facebook":"www.facebook.com/pages/Cowboy-Trail-Farms","twitter":"","tags":"baked-goods bedding plants canned preserved coffee tea crafts woodworking eggs herbs fresh-fruits fresh-vegetables honey soap body-care"},{"type":"farm","street":"7800 N. Tenaya Way","city":"Las Vegas","state":"NV","zip":"89131","longitude":"-115.250520","latitude":"36.301528","name":"Gilcrease Orchard Foundation","website":"www.thegilcreaseorchard.org","facebook":"","twitter":"","tags":"fresh-fruits fresh-vegetables honey juices ciders nuts"},{"type":"farm","street":"7575 Iron Mountain Blvd.","city":"Stagecoach","state":"NV","zip":"89429","longitude":"-119.4512050","latitude":"39.3377180","name":"Iron Mountain Nursery & Farm__On-Farm Farmers Market","website":"https://www.imnandf.com","facebook":"https://www.facebook.com/ironmountainnurseryandfarm","twitter":"","tags":"bedding plants herbs fresh-fruits fresh-vegetables nursery-stock"},{"type":"farm","street":"2090 fox st.","city":"silver springs","state":"NV","zip":"89429","longitude":"-119.210558","latitude":"39.308329","name":"k-t ranch","website":"k-tranch@hotmail.com","facebook":"","twitter":"","tags":"eggs prepared-foods red-meat non-poultry-meat"},{"type":"farm","street":"3701 Elm Street","city":"Silver Springs","state":"NV","zip":"89429","longitude":"-119.231220","latitude":"39.394724","name":"Silver Springs Custom Gardens On-Farm Green-Market","website":"","facebook":"https://www.facebook.com/pages/Custom-Gardens-Organic-Farm/125190910916903","twitter":"","tags":"bedding plants canned preserved herbs fresh-fruits fresh-vegetables honey"},{"type":"market","name":"Carson Farmers Market @3rd & Curry St. ","website":"https://carsonfarmersmarket.com/","facebook":"Carsonfarmersmarket","twitter":"3rd&curry","street":"3rd & Curry St. ","city":"Carson City","state":"NV","zip":"89703","longitude":"-119.768164","latitude":"39.162841","tags":"organic baked goods crafts flowers eggs seafood herbs vegetables honey jams meat nuts plants poultry prepared-foods soap trees coffee fruits juices pet food wild"},{"type":"market","name":"E. Center St. Farmers Market","website":"https://www.fallonfoodhub.com/farmers-market/","facebook":"","twitter":"","street":"40 East Center Street","city":"Fallon ","state":"NV","zip":"89406","longitude":"-118.776299","latitude":"39.473055","tags":"organic baked goods crafts vegetables honey jams prepared-foods soap coffee fruits"},{"type":"market","name":"Lincoln County Producers' Markets","website":"","facebook":"","twitter":"","street":"360 Lincoln Street","city":"Caliente","state":"NV","zip":"89008","longitude":"-114.5149","latitude":"37.61666","tags":"organic baked goods eggs herbs vegetables honey jams fruits"},{"type":"market","name":"Tamarack Junction Casino Farmers' Market","website":"http://shirleysfarmersmarkets@gmail.com","facebook":"Shirley's Farmers' Markets","twitter":"","street":"13101 So. Virginia Street","city":"RENO","state":"NV","zip":"89511","longitude":"-119.755381","latitude":"39.416292","tags":"organic baked goods crafts eggs seafood herbs vegetables honey nuts plants poultry prepared-foods soap fruits"},{"type":"market","name":"The Village Farmers Market on California Street","website":"http://www.shirleysfarmersmarkets.com","facebook":"htwww.facebook.com/ShirleysFarmersMarketsNV","twitter":"","street":"625 Booth Street","city":"Reno ","state":"NV","zip":"89509","longitude":"-119.827646","latitude":"39.514749","tags":"organic baked goods crafts flowers eggs seafood herbs vegetables honey jams nuts poultry soap coffee fruits"}]
