[{"type":"farm","street":"27197 S. Brookerson Rd.","city":"Wilcox","state":"AZ","zip":"85643","longitude":"-109.927245","latitude":"32.455554","name":"Briggs & Eggers Orchards ","website":"http://www.briggs-eggers.com","facebook":"","twitter":"","tags":"fresh-fruits"},{"type":"farm","street":"11325 STRICKLAND WASH RD","city":"PRESCOTT","state":"AZ","zip":"86305","longitude":"-112.669748","latitude":"34.756704","name":"Broken Horn D Ranch","website":"www.BHDRanch.com","facebook":"https://www.facebook.com/BHDRanch","twitter":"","tags":"eggs pet-food red-meat non-poultry-meat"},{"type":"farm","street":"2024 N.7th Street ","city":"Phoenix ","state":"AZ","zip":"85006","longitude":"-112.0658027","latitude":"33.4704390","name":"CitiFarms LLC ","website":"CitiFarms.com","facebook":"CitiFarms ","twitter":"CitiFarms ","tags":""},{"type":"farm","street":"1700 N Wentworth Rd","city":"Tucson","state":"AZ","zip":"85749","longitude":"-110.7187690","latitude":"32.2419960","name":"Elderberry Edibles CSA & Market Garden","website":"www.elderberryedibles.com","facebook":"https://www.facebook.com/ElderberryEdibles?ref=hl","twitter":"","tags":"cut-flowers eggs herbs fresh-fruits fresh-vegetables"},{"type":"farm","street":"27811 S. Sonoita Highway","city":"Sonoita","state":"AZ","zip":"85637","longitude":"-110.672343","latitude":"31.752720","name":"Harris Heritage Growers","website":"","facebook":"https://www.facebook.com/HarrisHeritageGrowers","twitter":"","tags":"baked-goods crafts woodworking cut-flowers eggs herbs fresh-fruits fresh-vegetables nursery-stock poultry fowl"},{"type":"farm","street":"911 West Baseline Road","city":"Phoenix","state":"AZ","zip":"85041","longitude":"-112.086188","latitude":"33.377375","name":"Orchard Community Learning Center","website":"www.orchardlearningcenter.org","facebook":"Orchard Community Learning Center","twitter":"","tags":"coffee tea cut-flowers eggs herbs fresh-fruits fresh-vegetables"},{"type":"farm","street":"16500 N. Stallion Pl.","city":"Tucson","state":"AZ","zip":"85739","longitude":"-110.896898","latitude":"32.505129","name":"Our Garden","website":"www.ourgardencatalina.com","facebook":"","twitter":"","tags":"cut-flowers eggs herbs fresh-fruits fresh-vegetables nursery-stock nuts"},{"type":"farm","street":"11 Mesquite Lane","city":"Concho","state":"AZ","zip":"85924","longitude":"-109.631732","latitude":"34.461412","name":"Stone Tree Acres","website":"","facebook":"","twitter":"","tags":"bedding plants canned preserved cut-flowers eggs herbs fresh-fruits fresh-vegetables honey mushrooms nursery-stock soap body-care"},{"type":"farm","street":"","city":"Palominas / Hereford","state":"AZ","zip":"85615","longitude":"-110.218650","latitude":"31.357113","name":"Thunder Mountain Alpaca Ranch","website":"","facebook":"https://www.facebook.com/ThunderMountainAlpacaRanch","twitter":"","tags":"eggs"},{"type":"farm","street":"507 E Barbarita Ave","city":"Gilbert","state":"AZ","zip":"85234","longitude":"-111.7794905","latitude":"33.3628495","name":"Wholesale Organic Chicken Feed and Grain Buyer's Club Phoenix Arizona","website":"www.phoenixorganicfeed.com","facebook":"https://www.facebook.com/BackyardChickenFarmersUnite/info","twitter":"","tags":"grains flour pet-food"},{"type":"market","name":"Farmers Market North Scottsdale","website":"http://farmersmarketnorthscottsdale.com","facebook":"@FarmersMarketNorthScottsdale","twitter":"","street":"8711 E Pinnacle Peak Road","city":"Scottsdale","state":"AZ","zip":"85252","longitude":"-111.893119","latitude":"33.697831","tags":"baked goods crafts eggs seafood vegetables honey jams prepared-foods soap coffee beans fruits juices pet food"},{"type":"market","name":"Gilbert Farmers Market","website":"http://gilbertmarket.com","facebook":"facebook.com/gilbertmarket/","twitter":"twitter.com/gilbertmarket","street":"222 N Ash St","city":"Gilbert","state":"AZ","zip":"85234","longitude":"-111.790943","latitude":"33.354527","tags":"organic baked goods cheese crafts flowers eggs seafood herbs vegetables honey jams maple meat nuts plants poultry prepared-foods soap trees wine coffee beans fruits grains juices mushrooms pet food tofu wild"},{"type":"market","name":"Heritage Market","website":"https://www.whitemtncommunitycoop.com/","facebook":"https://www.facebook.com/groups/1881445965496016/","twitter":"","street":"418 Main Street","city":"Springerville","state":"AZ","zip":"85938","longitude":"-109.2816730","latitude":"34.1324115","tags":"baked goods crafts eggs herbs vegetables honey jams meat plants prepared-foods soap coffee beans fruits mushrooms wild"},{"type":"market","name":"Payson Farmers Market, LLC","website":"https://www.paysonfarmersmarket.com/","facebook":"https://www.facebook.com/PaysonFarmersMarket","twitter":"","street":"816 S. Beeline Hwy","city":"Payson","state":"AZ","zip":"85541","longitude":"-111.327601","latitude":"34.229808","tags":"baked goods cheese crafts flowers eggs herbs vegetables honey jams meat nuts prepared-foods soap coffee fruits juices mushrooms pet food"},{"type":"market","name":"Prescott Farmers Market","website":"https://www.prescottfarmersmarket.org/","facebook":"https://www.facebook.com/prescottfarmersmarket","twitter":"","street":"900 Iron Springs Road","city":"Prescott ","state":"AZ","zip":"86301","longitude":"-112.482809","latitude":"34.557395","tags":"baked goods cheese crafts flowers eggs herbs vegetables honey jams meat nuts plants poultry prepared-foods soap coffee beans fruits mushrooms wild"},{"type":"market","name":"St. Phillips Plaza Market","website":"","facebook":"https://www.facebook.com/stphilipsplazamarket/","twitter":"","street":"4280 N. Campbell Rd","city":"Tucson","state":"AZ","zip":"85718","longitude":"-110.942088","latitude":"32.285766","tags":"organic crafts eggs seafood herbs vegetables honey jams maple soap coffee fruits juices mushrooms"},{"type":"market","name":"Superior Farm-to-Fantastic Farmer's Market","website":"","facebook":"Superior Farm-to-Fantastic Farmer's Market","twitter":"","street":"Superior Food Court, Main Street","city":"Superior","state":"AZ","zip":"85173","longitude":"-111.1103","latitude":"33.285146","tags":"baked goods flowers eggs vegetables honey jams soap trees beans fruits"},{"type":"market","name":"Westbrook Village Second Sundays Marketplace","website":"http://www.westbrookvillage.org","facebook":"","twitter":"","street":"19251 N Westbrook Parkway","city":"Peoria ","state":"AZ","zip":"85382","longitude":"-112.2655960","latitude":"33.6581970","tags":"baked goods cheese crafts flowers seafood herbs vegetables honey jams nuts plants prepared-foods soap trees coffee fruits pet food"},{"type":"market","name":"White Mountains Market","website":"http://www.whitemountainsmarket.com","facebook":"https://www.facebook.com/AZWhiteMountainsMarket","twitter":"","street":"1501 W White Mountain Blvd","city":"Pinetop-Lakeside ","state":"AZ","zip":"85929","longitude":"-109.970749","latitude":"34.146798","tags":"baked goods cheese crafts flowers eggs herbs vegetables honey jams meat nuts plants poultry prepared-foods soap coffee mushrooms wild"},{"type":"market","name":"Windmill Park Farmers Market in Cornville","website":"","facebook":"https://www.facebook.com/WindmillParkFarmersMarket","twitter":"","street":"9950 E CORNVILLE RD","city":"CORNV","state":"AZ","zip":"86325","longitude":"-111.908597","latitude":"34.739119","tags":"baked goods crafts flowers herbs vegetables honey jams meat nuts prepared-foods soap coffee beans fruits juices mushrooms pet food tofu"}]
