[{"type":"farm","street":"1575 Underwood Ave","city":"Muscatine","state":"IA","zip":"52761","longitude":"-90.927414","latitude":"41.509551","name":"Anderson Farm","website":"http://www.grassfedrecipes.com/","facebook":"https://www.facebook.com/Grassfed-Recipes-186658131371711/","twitter":"","tags":"red-meat non-poultry-meat"},{"type":"farm","street":"2469 Highway 2","city":"Donnellson","state":"IA","zip":"52625","longitude":"-91.436569","latitude":"40.633892","name":"Appleberry Orchard","website":"www.appleberryorchard.com","facebook":"www.facebook.com/appleberryorchard?ref=hl","twitter":"","tags":"baked-goods canned preserved coffee tea crafts woodworking fresh-fruits fresh-vegetables honey maple-products"},{"type":"farm","street":"3035 Addison Blvd","city":"Nashua ","state":"IA","zip":"50658","longitude":"-92.545614","latitude":"42.916533","name":"Apples on the Avenue","website":"http://www.applesontheavenue.com/","facebook":"https://www.facebook.com/pages/Apples-on-the-Avenue/569845613046631","twitter":"","tags":"baked-goods crafts woodworking fresh-fruits"},{"type":"farm","street":"4241 Johnson Avenue N.W.","city":"Cedar Rapids","state":"IA","zip":"52405","longitude":"-91.726645","latitude":"41.970148","name":"Baumhoefeners Red Barn Market","website":"www.redbarnmarket.net","facebook":"http:/www.facebook.com/BaumhoefenersRedBarnMarket","twitter":"","tags":"baked-goods bedding plants canned preserved cut-flowers dry beans eggs herbs fresh-fruits fresh-vegetables grains flour honey maple-products nursery-stock nuts poultry fowl soap body-care tofu non-animal protein wild-harvested forest-products"},{"type":"farm","street":"66435 270th Lane","city":"Nevada","state":"IA","zip":"50201","longitude":"-93.3779351","latitude":"41.9650666","name":"Black Cat Acres","website":"www.blackcatacres.com","facebook":"Black Cat Acres","twitter":"","tags":"fresh-fruits fresh-vegetables honey"},{"type":"farm","street":"1121 220th Street","city":"Winterset","state":"IA","zip":"50273","longitude":"-94.218255","latitude":"41.331685","name":"Burr Oak Farm LLC","website":"www.burroakfarm.com","facebook":"","twitter":"","tags":"canned preserved fresh-fruits"},{"type":"farm","street":"724 Hwy G76","city":"Dallas","state":"IA","zip":"50062","longitude":"-93.2087830","latitude":"41.2114248","name":"Charging Skunk Farms","website":"","facebook":"www.facebook.com/ChargingSkunkFarms","twitter":"","tags":"baked-goods canned preserved crafts woodworking fresh-fruits fresh-vegetables"},{"type":"farm","street":"31140 185th Street","city":"Honey Creek","state":"IA","zip":"51542","longitude":"-95.8290590","latitude":"41.4641740","name":"Doe's and Diva's Dairy, Inc.","website":"www.doesanddivas.com","facebook":"https://www.facebook.com/pages/Does-and-Divas-Dairy","twitter":"https://twitter.com/Does_and_Divas","tags":"dairy products eggs poultry fowl"},{"type":"farm","street":"3385 130th St.","city":"Dunlap","state":"IA","zip":"51529","longitude":"-95.619054","latitude":"41.866123","name":"Dunham Bee Farm","website":"www.dunhambeefarm.com","facebook":"facebook.com/dunhambeefarm","twitter":"","tags":"honey"},{"type":"farm","street":"10126 30th Ave.","city":"Prole","state":"IA","zip":"50229","longitude":"-93.750998","latitude":"41.378166","name":"Eden Ridge Acres ","website":"Www.EdenRidgeAcres.com","facebook":"Www.facebook.com/edenridgeacresfarm","twitter":"","tags":"canned preserved coffee tea eggs herbs fresh-fruits fresh-vegetables honey poultry fowl red-meat non-poultry-meat"},{"type":"farm","street":"12942 338th Street","city":"Strawberry Point ","state":"IA","zip":"52076","longitude":"-91.5487795","latitude":"42.7373776","name":"Heritage Breed Meats","website":"","facebook":"https://www.facebook.com/pages/Heritage-Breeds-Meats/136842603056527","twitter":"https://twitter.com/heritagebreedmt","tags":"poultry fowl red-meat non-poultry-meat"},{"type":"farm","street":"Box 532","city":"Oakland","state":"IA","zip":"51560","longitude":"-95.3957997","latitude":"41.3094375","name":"Honey Creek Farms ","website":"neverendingharvest.com","facebook":"https://www.facebook.com/neverendingharvestvideos","twitter":"","tags":"baked-goods canned preserved fresh-fruits fresh-vegetables poultry fowl"},{"type":"farm","street":"1452 220th Street","city":"Gilmore City","state":"IA","zip":"50541","longitude":"-94.3539248","latitude":"42.7321788","name":"JoKir's Wild Black Angus Beef","website":"www.jokirswild.com","facebook":"","twitter":"","tags":"red-meat non-poultry-meat"},{"type":"farm","street":"2768 U.s. highway 65 / 69","city":"Carlisle","state":"IA","zip":"50047","longitude":"-93.567492","latitude":"41.486184","name":"North River Adventure Farm","website":"www.nnorthrivercornmaze.com","facebook":"https://www.facebook.com/Northrivercornmaze/timeline","twitter":"","tags":"baked-goods canned preserved crafts woodworking fresh-vegetables honey"},{"type":"farm","street":"619 44th Ave","city":"Amana","state":"IA","zip":"52203","longitude":"-91.872289","latitude":"41.800429","name":"Oldhaus Fibers","website":"www.oldhausfibers.com","facebook":"https://www.facebook.com/OldhausFibers","twitter":"https://www.twitter.com/oldhaus","tags":""},{"type":"farm","street":"14583 S Avenue","city":"Woodward","state":"IA","zip":"50276","longitude":"-93.934071","latitude":"41.829577","name":"Picket Fence Creamery, LLC","website":"www.picketfencecreamery.com","facebook":"","twitter":"","tags":"baked-goods canned preserved coffee tea crafts woodworking dairy products eggs fish seafood herbs fresh-fruits fresh-vegetables honey maple-products poultry fowl red-meat non-poultry-meat soap body-care wine spirits beer hard-cider"},{"type":"farm","street":"66435 270th Lane","city":"Nevada","state":"IA","zip":"50201","longitude":"-93.378450","latitude":"41.965503","name":"Produce farm ","website":"www.blackcatacres.com","facebook":"Black Cat Acres","twitter":"","tags":"fresh-vegetables honey"},{"type":"farm","street":"2505 Carriage Trail","city":"Winterset","state":"IA","zip":"50273","longitude":"-94.1606448","latitude":"41.2837312","name":"Randol Honey Farm","website":"www.randolhoney.com","facebook":"https://www.facebook.com/pages/Randol-Honey-Farm/101353756576663","twitter":"","tags":"honey soap body-care"},{"type":"farm","street":"2625 HWY 1 SW","city":"Iowa City","state":"IA","zip":"52240","longitude":"-91.673626","latitude":"41.600381","name":"The Golden Egg","website":"","facebook":"https://www.facebook.com/pages/The-Golden-Egg/212499635466241?ref=hl","twitter":"","tags":"eggs"},{"type":"farm","street":"705 SW Ringgold Street","city":"Boone","state":"IA","zip":"50036","longitude":"-93.918501","latitude":"42.050524","name":"Timberlea Farm","website":"","facebook":"https://www.facebook.com/timberlea.aronia","twitter":"","tags":""},{"type":"farm","street":"1063 205th St.","city":"Tipton","state":"IA","zip":"52772","longitude":"-91.128372","latitude":"41.76979","name":"Twisted Oaks Meats","website":"twistedoaksmeats.com","facebook":"Twisted Oaks Meats","twitter":"","tags":"eggs poultry fowl"},{"type":"farm","street":"12270 Ne 22nd","city":"Ankeny","state":"IA","zip":"50021","longitude":"-93.5815110","latitude":"41.7854780","name":"Van Dyke Sweet Corn","website":"","facebook":"","twitter":"","tags":"cut-flowers fresh-vegetables"},{"type":"market","name":"Ames Main Street Farmers' Market","website":"http://www.amesmainsteetfarmersmarket.com","facebook":"Ames Main Street Farmers' Market","twitter":"","street":"300 & 400 Blocks of  Main Street","city":"Ames, IA","state":"IA","zip":"50010","longitude":"-93.614943","latitude":"42.025222","tags":"organic baked goods cheese crafts flowers eggs herbs vegetables honey jams meat nuts plants poultry prepared-foods soap wine coffee fruits juices mushrooms pet food wild"},{"type":"market","name":"Beaverdale Farmers Market","website":"http://beaverdalefarmersmarket.org/","facebook":"https://www.facebook.com/BeaverdaleFarmFest/","twitter":"@BeaverdaleFarm","street":"4100 Urbandale Avenue","city":"Des Moines ","state":"IA","zip":"50310","longitude":"-93.6731823","latitude":"41.6200580","tags":"baked goods crafts flowers eggs herbs vegetables honey jams meat plants poultry prepared-foods soap fruits juices pet food"},{"type":"market","name":"Boone Farmers Market Association","website":"http://www.boonefarmersmarket.com","facebook":"","twitter":"","street":"7th and Story Street","city":"Boone","state":"IA","zip":"50036","longitude":"-93.879688","latitude":"42.062726","tags":"baked goods crafts eggs herbs vegetables honey jams plants prepared-foods soap wine fruits mushrooms"},{"type":"market","name":"Coralville Farmers' Market","website":"http://www.coralville.org/farmersmarket","facebook":"www.facebook.com/coralvillefarmersmarket","twitter":"www.twitter.com/CvilleParksRec","street":"1513 7th St","city":"Coralville ","state":"IA","zip":"52241","longitude":"-91.584155","latitude":"41.678726","tags":"baked goods crafts flowers eggs vegetables honey jams meat plants prepared-foods soap fruits"},{"type":"market","name":"Davenport Farmers' Market","website":"http://mvgrowers.com","facebook":"Mississippi Valley Growers farmers Market","twitter":"","street":"North Park Mall east entrance","city":"Davenport","state":"IA","zip":"52804","longitude":"-90.571154","latitude":"41.562863","tags":"baked goods flowers eggs vegetables honey jams plants prepared-foods fruits pet food"},{"type":"market","name":"Dubuque Farmers Market","website":"http://www.DubuqueFarmersMarket.org","facebook":"https://www.facebook.com/dbqfarmersmarket","twitter":"","street":"Iowa Street between 10th & 13th Streets","city":"Dubuque","state":"IA","zip":"52001","longitude":"-90.667851","latitude":"42.504521","tags":"organic baked goods cheese crafts flowers eggs seafood herbs vegetables honey jams maple meat nuts plants poultry prepared-foods soap trees wine coffee fruits grains juices mushrooms pet food wild"},{"type":"market","name":"Eldora Farmers Market","website":"","facebook":"","twitter":"","street":"Corner of Edgington Ave. and 14th Street","city":"Eldora","state":"IA","zip":"50627","longitude":"-93.100656","latitude":"42.360510","tags":"baked goods crafts flowers herbs vegetables jams plants fruits"},{"type":"market","name":"Freight House Farmers' Market","website":"http://www.freighthousefarmersmarket.com","facebook":"www.fb.com/freighthousefarmersmarket","twitter":"","street":"421 West River Drive #32","city":"Davenport","state":"IA","zip":"52801","longitude":"-90.582083","latitude":"41.519748","tags":"organic baked goods cheese crafts flowers eggs seafood herbs vegetables honey jams maple meat nuts plants poultry prepared-foods soap wine coffee beans fruits grains juices mushrooms pet food tofu wild"},{"type":"market","name":"Grinnell Farmers Market","website":"http://www.grinnellfarmersmarket.com","facebook":"facebook.com/grinnellfarmersmarket","twitter":"","street":"833 4th Ave","city":"Grinnell","state":"IA","zip":"50112","longitude":"-92.724057","latitude":"41.743189","tags":"baked goods crafts flowers eggs vegetables honey jams meat plants poultry prepared-foods soap fruits mushrooms wild"},{"type":"market","name":"Guttenberg Farmers Market","website":"http://www.guttenbergiowa.net/farmers-market.html","facebook":"https://www.facebook.com/GuttenbergFarmersMarket/","twitter":"","street":"400 Block of South River Park Drive","city":"Guttenberg","state":"IA","zip":"52052","longitude":"-91.095446","latitude":"42.782433","tags":"baked goods crafts flowers eggs seafood herbs vegetables honey jams maple meat plants soap fruits mushrooms"},{"type":"market","name":"Hampton Farmers Market","website":"","facebook":"","twitter":"","street":"1st Street NW and 1st Ave. NW","city":"Hampton","state":"IA","zip":"50441","longitude":"-93.209702","latitude":"42.742892","tags":"baked goods crafts eggs herbs vegetables honey jams plants fruits"},{"type":"market","name":"Highway 7 Market","website":"https://highway7market.wixsite.com/manson","facebook":"https://www.facebook.com/highway7market/","twitter":"","street":"1118 1st Ave","city":"Manson ","state":"IA","zip":"50563","longitude":"-94.5353089","latitude":"42.5171234","tags":"baked goods cheese crafts eggs seafood vegetables honey jams maple nuts plants poultry soap fruits juices"},{"type":"market","name":"Ida Area Farmers' Market","website":"http://www.idafarmersmarket.com","facebook":"Ida Area Farmers Market","twitter":"","street":"2nd Street","city":"Ida Grove","state":"IA","zip":"51445","longitude":"-95.470874","latitude":"42.345173","tags":"baked goods crafts eggs vegetables honey jams nuts soap wine fruits"},{"type":"market","name":"Independence Farmers Market","website":"","facebook":"https://www.facebook.com/indeefarmersmarket/","twitter":"","street":"100 1st St. W","city":"Independence","state":"IA","zip":"50644","longitude":"-91.8949732","latitude":"42.4687056","tags":"baked goods crafts flowers eggs herbs vegetables honey jams nuts plants prepared-foods soap fruits"},{"type":"market","name":"iowa falls farmers' market","website":"","facebook":"","twitter":"","street":"Corner of Rocksylvania Ave. anb Stevens St.","city":"Iowa Falls","state":"IA","zip":"50126","longitude":"-93.264356","latitude":"42.521222","tags":"baked goods crafts flowers eggs herbs vegetables jams plants soap fruits"},{"type":"market","name":"Lamoni Farmer's Market","website":"","facebook":"Lamoni Farmers' Market","twitter":"","street":"610  E. Main St  or Corner of Main St & South Linden St","city":"Lamoni","state":"IA","zip":"50140","longitude":"-93.933204","latitude":"40.623530","tags":"crafts flowers eggs herbs vegetables honey meat fruits mushrooms"},{"type":"market","name":"LSI Global Greens Farmers' Market","website":"http://lsiowa.org/market","facebook":"","twitter":"","street":"3200 University Ave","city":"Des Moines","state":"IA","zip":"50311","longitude":"-93.660454","latitude":"41.599698","tags":"flowers herbs vegetables plants beans"},{"type":"market","name":"Madison County Farmers Market","website":"","facebook":"https://www.facebook.com/madisoncofarmersmarket","twitter":"","street":"112 N. John Wayne Dr.","city":"Winterset","state":"IA","zip":"50273","longitude":"-94.013604","latitude":"41.335222","tags":"organic baked goods crafts flowers eggs herbs vegetables honey jams meat nuts plants poultry soap coffee fruits"},{"type":"market","name":"Manson Farmers Market","website":"","facebook":"https://www.facebook.com/mansoniafarmersmarket","twitter":"","street":"","city":"Manson ","state":"IA","zip":"50563","longitude":"-94.539507","latitude":"42.527104","tags":"baked goods eggs vegetables honey jams wine fruits"},{"type":"market","name":"Marion Farmers Market","website":"","facebook":"","twitter":"","street":"2200 31st Street","city":"Marion","state":"IA","zip":"52302","longitude":"-91.5807440","latitude":"42.0443772","tags":"baked goods crafts flowers eggs vegetables honey jams meat plants prepared-foods soap coffee fruits"},{"type":"market","name":"North Iowa Farmers Market","website":"https://northiowafarmersmarket.com/","facebook":"https://www.facebook.com/northiowafarmersmarket/","twitter":"","street":"1st NE and Delaware","city":"Mason City","state":"IA","zip":"50401","longitude":"-93.199249","latitude":"43.152590","tags":"organic baked goods crafts flowers eggs herbs vegetables honey jams meat plants poultry prepared-foods soap fruits"},{"type":"market","name":"Red Oak Farmers Market","website":"http://redoakfarmersmarket.com","facebook":"facebook.com@redoakfarmersmarket","twitter":"","street":"307 East Reed Street","city":"Red Oak","state":"IA","zip":"51566","longitude":"-95.228044","latitude":"41.009641","tags":"baked goods crafts eggs herbs vegetables honey jams fruits"},{"type":"market","name":"Rock Valley Farmers Market","website":"","facebook":"Rock Valley Farmers Market (group)","twitter":"","street":"1013 13th Ave","city":"Rock Valley","state":"IA","zip":"51247","longitude":"-96.300832","latitude":"43.200223","tags":"baked goods crafts eggs vegetables jams fruits"},{"type":"market","name":"Shelby County Farmers Market","website":"","facebook":"https://www.facebook.com/pages/Shelby-County-Farmers-Market/","twitter":"","street":"Hwys 44 and 59","city":"Harlan","state":"IA","zip":"51537","longitude":"-95.338882","latitude":"41.645926","tags":"baked goods eggs herbs vegetables honey jams trees fruits"},{"type":"market","name":"Sioux City Farmers Market","website":"http://www.farmersmarketsiouxcity.com","facebook":"Sioux City Farmers Market","twitter":"@SiouxCityFarmersMarket","street":"100 Pearl Street","city":"Sioux City","state":"IA","zip":"51101","longitude":"-96.408445","latitude":"42.490552","tags":"organic baked goods cheese crafts flowers eggs herbs vegetables honey jams meat plants poultry prepared-foods soap wine coffee fruits juices mushrooms pet food"},{"type":"market","name":"Urbana Farmers' Market","website":"","facebook":"urbanafarmersmarket","twitter":"urbanaiafm","street":"102 Capitol Ave","city":"Urbana","state":"IA","zip":"52345","longitude":"-91.873662","latitude":"42.223981","tags":"baked goods crafts flowers eggs vegetables jams plants soap fruits"},{"type":"market","name":"Wapello County Farmers Market","website":"","facebook":"Wapello County  Farmers Market","twitter":"","street":"","city":"Ottumwa","state":"IA","zip":"52501","longitude":"-92.425855","latitude":"41.017422","tags":"baked goods crafts eggs herbs honey jams prepared-foods soap fruits"},{"type":"market","name":"Waukon Farmers Market","website":"","facebook":"https://www.facebook.com/WaukonFM","twitter":"","street":"850 Rossville Road","city":"Waukon","state":"IA","zip":"52172","longitude":"-91.472878","latitude":"43.260191","tags":"baked goods flowers eggs herbs vegetables jams wine fruits"},{"type":"market","name":"Welcome Center Farmers Market","website":"","facebook":"https://www.facebook.com/Harrison-County-Iowa-Welcome-Center-198265796855610/","twitter":"","street":"2931 Monroe Avenue","city":"Missouri Valley","state":"IA","zip":"51555","longitude":"-95.848181","latitude":"41.583893","tags":"baked goods cheese crafts flowers eggs herbs vegetables honey jams plants prepared-foods soap coffee fruits"}]
