[{"type":"farm","street":"402 S Neilson Ave","city":"Pueblo","state":"CO","zip":"81001","longitude":"-104.5579487","latitude":"38.2639407","name":"A Wren's Nest Farm","website":"http://awrensnest.com/nest/","facebook":"https://www.facebook.com/AWrensNestFarm","twitter":"","tags":"bedding plants canned preserved soap body-care"},{"type":"farm","street":"3424 E. Douglas Road","city":"Ft. Collins","state":"CO","zip":"80524","longitude":"-105.031185","latitude":"40.694011","name":"Bartels Land and Livestock Upick and Pumpkin Patch","website":"llavud@frii.com","facebook":"https://www.facebook.com/pages/The-Bartels-Pumpkin-Patch/137755902661","twitter":"","tags":"fresh-vegetables"},{"type":"farm","street":"2257 L Road","city":"Grand Junction","state":"CO","zip":"81505","longitude":"-108.6318750","latitude":"39.1768720","name":"Bolton's Orchards","website":"","facebook":"https://www.facebook.com/pages/Boltons-Orchards-and-Farm-Market/342817158274","twitter":"","tags":"canned preserved eggs fresh-fruits fresh-vegetables"},{"type":"farm","street":"3175 Grandview Avenue","city":"Canon City","state":"CO","zip":"81212","longitude":"-105.185165","latitude":"38.435304","name":"Colon Orchards","website":"www.colonorchards.com","facebook":"www.facebook.com/colonorchards","twitter":"","tags":"canned preserved dairy products dry beans eggs herbs fresh-fruits fresh-vegetables honey juices ciders nuts red-meat non-poultry-meat soap body-care"},{"type":"farm","street":"8222 S Perry Park Rd","city":"Larkspur","state":"CO","zip":"80118","longitude":"-104.956008","latitude":"39.241712","name":"Crooked Clove Farm & Ranch LLC","website":"www.crookedclove.com","facebook":"www.facebook.com/crookedclove","twitter":"www.twitter.com/crookedclove","tags":"baked-goods canned preserved eggs herbs fresh-vegetables soap body-care"},{"type":"farm","street":"14679 5875 Rd","city":"Montrose","state":"CO","zip":"81403","longitude":"-107.991232","latitude":"38.480011","name":"DELYAKS","website":"www.yakmeat.us  , www.yaksale.com","facebook":"DELYAKS","twitter":"","tags":"red-meat non-poultry-meat"},{"type":"farm","street":"16870 Garvin Mesa Road","city":"Paonia","state":"CO","zip":"81428","longitude":"-107.574089","latitude":"38.898061","name":"Desert Weyr, LLC","website":"http://www.desertweyr.com","facebook":"https://www.facebook.com/pages/Desert-Weyr-LLC/56496179294","twitter":"https://twitter.com/Oogiem","tags":"poultry fowl red-meat non-poultry-meat"},{"type":"farm","street":"22440 County Road 1","city":"Berthoud ","state":"CO","zip":"80513","longitude":"-105.0541790","latitude":"40.3268060","name":"Dottie's Garden Spot","website":"","facebook":"","twitter":"","tags":"fresh-vegetables"},{"type":"farm","street":"823 1400 Lane","city":"Delta","state":"CO","zip":"81416","longitude":"-108.108097","latitude":"38.773807","name":"Dragonfly Farm","website":"dragonflychurros.com","facebook":"","twitter":"","tags":""},{"type":"farm","street":"9400 W Alameda Ave","city":"Lakewood","state":"CO","zip":"80226","longitude":"-105.101698","latitude":"39.710797","name":"Everitt Farms","website":"www.everittfarms.com","facebook":"https://www.facebook.com/everittfarms","twitter":"https://twitter.com/EverittFarms","tags":"baked-goods canned preserved crafts woodworking cut-flowers dry beans eggs fresh-vegetables grains flour honey"},{"type":"farm","street":"44th Avenue and Vallejo Street","city":"Denver","state":"CO","zip":"80211","longitude":"-105.0134837","latitude":"39.7765630","name":"Feed Denver: Sunnyside Farm & Market","website":"www.FeedDenver.com","facebook":"www.facebook.com/feeddenver","twitter":"www.twitter.com/feeddenver","tags":"baked-goods bedding plants canned preserved crafts woodworking cut-flowers eggs herbs fresh-fruits fresh-vegetables honey nursery-stock pet-food prepared-foods wild-harvested forest-products"},{"type":"farm","street":"23700 E 42nd Avenue","city":"Aurora","state":"CO","zip":"80019","longitude":"-104.7104899","latitude":"39.7746330","name":"Fresh Start Family Farms LLC.","website":"http://www.freshstartfamilyfarms.com","facebook":"https://www.facebook.com/pages/Fresh-Start-Family-Farms/199168826774078?ref=hl","twitter":"","tags":"eggs"},{"type":"farm","street":"4425 83rd Ave","city":"Greeley","state":"CO","zip":"80634","longitude":"-104.813442","latitude":"40.369227","name":"Hansen Family Barnyard","website":"Hansenfamilybarnyard.com","facebook":"","twitter":"","tags":"dairy products eggs poultry fowl red-meat non-poultry-meat"},{"type":"farm","street":"28881 Road P","city":"Dolores","state":"CO","zip":"81323","longitude":"-108.522003","latitude":"37.421268","name":"Harvest Moon Produce LLC","website":"https://harvestmoonproduce.farm","facebook":"https://facebook.com/harvestmoonproduce","twitter":"","tags":"cut-flowers fresh-fruits fresh-vegetables"},{"type":"farm","street":"4809 Foothills Drive","city":"Berthoud","state":"CO","zip":"80513","longitude":"-105.163392","latitude":"40.287934","name":"Heritage Lavender, LLC","website":"http://heritagelavender.com/","facebook":"https://www.facebook.com/HeritageLavender?ref=hl","twitter":"","tags":"baked-goods bedding plants crafts woodworking cut-flowers herbs prepared-foods soap body-care"},{"type":"farm","street":"7225 Wildridge Road","city":"Black Forest","state":"CO","zip":"80908","longitude":"-104.692742","latitude":"39.039318","name":"High Altitude Rhubarb--Organic Farm & Nursery","website":"http://www.highaltituderhubarb.com","facebook":"https://www.facebook.com/#!/pages/High-Altitude-Rhubarb-LLC/161735683855277","twitter":"","tags":"fresh-vegetables honey nursery-stock"},{"type":"farm","street":"616 Stout St","city":"Walsenburg ","state":"CO","zip":"81089","longitude":"-104.7935518","latitude":"37.6300888","name":"Hugs Farm","website":"www.HugsFarm.weebly.com","facebook":"","twitter":"","tags":"canned preserved herbs fresh-fruits fresh-vegetables"},{"type":"farm","street":"7093  County Road 61","city":"Divide","state":"CO","zip":"80814","longitude":"-105.169881","latitude":"38.847830","name":"Jenkins Farm, L.L.C.","website":"","facebook":"","twitter":"","tags":"eggs herbs fresh-fruits fresh-vegetables nursery-stock"},{"type":"farm","street":"25641 County Road T.9","city":"Brush","state":"CO","zip":"80723","longitude":"-103.666797","latitude":"40.275803","name":"Just What Grows Gardens","website":"","facebook":"","twitter":"","tags":"herbs fresh-vegetables nursery-stock"},{"type":"farm","street":"3724 North County Road 13","city":"Fort Collins ","state":"CO","zip":"80524","longitude":"-105.0566885","latitude":"40.6404242","name":"Laughing Buck Farm","website":"www.laughingbuckfarm.com","facebook":"https://www.facebook.com/laughingbuckfarm","twitter":"","tags":"eggs fresh-vegetables soap body-care"},{"type":"farm","street":"1875 Locust Rd","city":"MONTROSE","state":"CO","zip":"81401","longitude":"-107.8606070","latitude":"38.4917080","name":"Life Cycles Pasture","website":"www.lifecyclespasture.com","facebook":"https://www.facebook.com/pages/Life-Cycles-Pasture/400632466741298?ref=bookmarks","twitter":"","tags":"poultry fowl red-meat non-poultry-meat"},{"type":"farm","street":"3651 E 1/2 Road","city":"Palisade","state":"CO","zip":"81526","longitude":"-108.3749150","latitude":"39.0835220","name":"Morton's Organic Orchards","website":"www.mortonsorchards.com","facebook":"","twitter":"","tags":"canned preserved fresh-fruits fresh-vegetables"},{"type":"farm","street":"W. Horsetooth and Richmond Dr","city":"Fort Collins","state":"CO","zip":"80526","longitude":"-105.099421","latitude":"40.538248","name":"On the Vine at Richmond Farms Urban Market","website":"www.onthevineatrichmondfarms.com","facebook":"www.facebook.com/onthevinefarm","twitter":"","tags":"cut-flowers eggs fresh-fruits fresh-vegetables honey poultry fowl"},{"type":"farm","street":"11500 Havana Street","city":"Henderson","state":"CO","zip":"80640","longitude":"-104.8641280","latitude":"39.9030356","name":"Palombo Farms Market","website":"www.PalomboMarket.com","facebook":"https://www.facebook.com/PalomboMarket","twitter":"https://twitter.com/@palombomarket","tags":"baked-goods canned preserved dry beans eggs fresh-fruits fresh-vegetables honey juices ciders mushrooms nuts"},{"type":"farm","street":"15238 Rd 21","city":"Cortez","state":"CO","zip":"81321","longitude":"-108.6622140","latitude":"37.4322350","name":"Pitts Family Ranch","website":"","facebook":"PittsFamilyRanchGrassfedMilk","twitter":"","tags":"dairy products eggs poultry fowl red-meat non-poultry-meat"},{"type":"farm","street":"4999 Spruce Court","city":"Elizabeth","state":"CO","zip":"80107","longitude":"-104.570812","latitude":"39.362073","name":"Ponderosa Plains Farm","website":"https://ponderosaplains.square.site","facebook":"https://www.facebook.com/PonderosaPlains","twitter":"","tags":"bedding plants canned preserved coffee tea cut-flowers eggs herbs honey nursery-stock soap body-care"},{"type":"farm","street":"1701 South Cherokee St","city":"Denver","state":"CO","zip":"80229","longitude":"-104.991521","latitude":"39.685542","name":"RoastedChile.com","website":"Roastedchili.com","facebook":"","twitter":"","tags":"canned preserved dry beans honey nuts"},{"type":"farm","street":"18911 Cherry Springs Ranch Dr.","city":"Monument","state":"CO","zip":"80132","longitude":"-104.781932","latitude":"39.107269","name":"Searle Ranch","website":"searleranch.com","facebook":"https://www.facebook.com/pages/Searle-Ranch-Grass-Fed-Beef","twitter":"","tags":""},{"type":"farm","street":"18561 Surface Creek Road","city":"Cedaredge","state":"CO","zip":"81413","longitude":"-107.909922","latitude":"38.923679","name":"Uncle Johnnys UPick Farm","website":"","facebook":"https://www.facebook.com/pages/Uncle-Johnnys-U-Pick-Farm/152162904866587","twitter":"","tags":"bedding plants fresh-fruits fresh-vegetables"},{"type":"farm","street":"116 Red Rock Dr.","city":"Penrose","state":"CO","zip":"81240","longitude":"-105.051367","latitude":"38.534429","name":"Upper Beaver Creek Ranch","website":"","facebook":"","twitter":"","tags":"baked-goods eggs red-meat non-poultry-meat"},{"type":"market","name":"Alamosa Farmers Market","website":"http://www.alamosafarmersmarket.org","facebook":"https://www.facebook.com/pages/Alamosa-Farmers-Market/104375596315429?fref=ts","twitter":"","street":"Corner of 6th Street and State Avenue's Parking Lot","city":"Alamosa","state":"CO","zip":"81101","longitude":"-105.865006","latitude":"37.467321","tags":"organic baked goods cheese crafts flowers eggs herbs vegetables honey jams meat nuts plants prepared-foods soap coffee beans fruits grains mushrooms"},{"type":"market","name":"Basalt Sunday Market","website":"http://www.basaltsundaymarket.com","facebook":"","twitter":"","street":"101 Midland Avenue","city":"Basalt","state":"CO","zip":"81621","longitude":"-107.034736","latitude":"39.368957","tags":"baked goods cheese crafts flowers eggs seafood herbs vegetables honey jams meat prepared-foods soap coffee fruits grains juices mushrooms"},{"type":"market","name":"City of Loveland Farmers Market","website":"https://www.cityofloveland.org/farmersmarket","facebook":"https://www.facebook.com/cityoflovelandfarmersmarket","twitter":"","street":"700 S. Railroad","city":"Loveland","state":"CO","zip":"80537","longitude":"-105.078652","latitude":"40.387479","tags":"organic baked goods cheese crafts flowers eggs herbs vegetables honey jams maple meat poultry prepared-foods soap wine coffee beans fruits grains mushrooms pet food tofu wild"},{"type":"market","name":"Colorado Farm and Art Market","website":"http://www.farmandartmarket.com","facebook":"https://www.facebook.com/farmandartmarket","twitter":"https://twitter.com/cofarmartmarket","street":"7350 Pine Creek Road","city":"Colorado Springs","state":"CO","zip":"80919","longitude":"-104.8146880","latitude":"38.9377160","tags":"baked goods cheese crafts flowers eggs seafood herbs vegetables honey jams meat plants poultry prepared-foods soap wine coffee beans fruits juices pet food"},{"type":"market","name":"Colorado Farm and Art Market","website":"http://www.farmandartmarket.com","facebook":"https://www.facebook.com/farmandartmarket","twitter":"https://twitter.com/cofarmartmarket","street":"215 S. Tejon","city":"Colorado Springs","state":"CO","zip":"80903","longitude":"-104.822309","latitude":"38.830543","tags":"organic baked goods cheese crafts flowers eggs seafood herbs vegetables honey jams meat poultry prepared-foods soap coffee beans fruits juices mushrooms"},{"type":"market","name":"Cortez Farmers Market","website":"http://www.cortezfarmmarket.com","facebook":"https://www.facebook.com/groups/265957719169/admins/?order=default","twitter":"","street":"Main and Elm Streets","city":"Cortez","state":"CO","zip":"81321","longitude":"-108.587634","latitude":"37.348444","tags":"baked goods crafts flowers eggs herbs vegetables honey jams meat plants poultry prepared-foods soap coffee beans fruits"},{"type":"market","name":"Dolores County Farmers Market","website":"http://www.dovecreekfood.org","facebook":"https://www.facebook.com/DoloresCountyFarmersMarket/","twitter":"","street":"390 Main Street","city":"Dove Creek","state":"CO","zip":"81324","longitude":"-108.903587","latitude":"37.764836","tags":"baked goods flowers eggs herbs vegetables honey jams plants soap coffee beans fruits wild"},{"type":"market","name":"Durango Farmers Market","website":"http://www.durangofarmersmarket.com/","facebook":"https://www.facebook.com/durangofarmersmarket/","twitter":"","street":"259 W 9th Street","city":"Durango","state":"CO","zip":"81301","longitude":"-107.882758","latitude":"37.273063","tags":"organic baked goods cheese crafts flowers eggs seafood herbs vegetables honey jams meat plants poultry prepared-foods soap trees wine coffee beans fruits grains juices mushrooms tofu wild"},{"type":"market","name":"Greeley Farmers Market","website":"https://greeleygov.com/activities/fm/home","facebook":"@greeleyfarmersmarket","twitter":"","street":"902 7th Ave.","city":"Greeley","state":"CO","zip":"80631","longitude":"-104.689105","latitude":"40.424001","tags":"baked goods cheese crafts flowers eggs herbs vegetables honey jams meat plants poultry prepared-foods soap trees coffee beans fruits juices mushrooms wild"},{"type":"market","name":"Highlands Ranch Farmers Market","website":"http://denverfarmersmarket.com","facebook":"Metro Denver Farmers' Market","twitter":"","street":"Highlands Ranch Pkwy and Dorchester Rd","city":"Highlands Ranch ","state":"CO","zip":"80129","longitude":"-104.999685","latitude":"39.547023","tags":"baked goods crafts eggs seafood herbs vegetables honey jams meat nuts plants poultry prepared-foods soap coffee beans fruits juices mushrooms wild"},{"type":"market","name":"Larimer County Farmers' Market","website":"http://larimercountyfm.org","facebook":"https://www.facebook.com/larimercountyfm","twitter":"","street":"200 W. Oak St.","city":"Fort Collins","state":"CO","zip":"80521","longitude":"-105.080197","latitude":"40.586073","tags":"organic baked goods cheese crafts flowers eggs herbs vegetables honey jams meat plants poultry prepared-foods soap wine coffee beans fruits grains mushrooms pet food tofu"},{"type":"market","name":"Minturn Market","website":"https://www.minturn.org/explore-minturn/pages/minturn-market","facebook":"https://www.facebook.com/minturnmarket","twitter":"","street":"Historic Downtown Minturn","city":"Minturn","state":"CO","zip":"81645","longitude":"-106.4315","latitude":"39.58839","tags":"baked goods cheese crafts eggs seafood vegetables honey jams nuts prepared-foods soap coffee fruits"},{"type":"market","name":"Montrose Farmers Market - Summer","website":"http://montrosefarmersmarket.weebly.com/","facebook":"https://m.facebook.com/MontroseFarmersMarket/","twitter":"","street":"S. Uncompahgre and S. 1st Street","city":"Montrose ","state":"CO","zip":"81401","longitude":"-107.874269","latitude":"38.479423","tags":"baked goods cheese crafts flowers eggs herbs vegetables honey jams meat nuts plants poultry prepared-foods soap trees coffee beans fruits grains juices mushrooms pet food"},{"type":"market","name":"Plateau Valley Farmers Market","website":"","facebook":"","twitter":"","street":"2003 Main Street","city":"Collbran","state":"CO","zip":"81624","longitude":"-107.962277","latitude":"39.238943","tags":"baked goods crafts flowers eggs herbs vegetables honey jams meat plants soap coffee fruits"},{"type":"market","name":"Southwest Plaza Farmers Market","website":"http://denverfarmersmarket.com","facebook":"Metro Denver Farmers' Market","twitter":"","street":"Wadsworth and Bowles","city":"Littleton ","state":"CO","zip":"80123","longitude":"-105.095730","latitude":"39.611904","tags":"organic baked goods cheese crafts flowers eggs seafood herbs vegetables honey jams meat nuts plants soap wine coffee fruits mushrooms wild"},{"type":"market","name":"Spanish Peaks Farm Stand","website":"","facebook":"Spanish Peaks Farm Stand","twitter":"","street":"23500 US Hwy 160","city":"Walsenburg","state":"CO","zip":"81089","longitude":"-104.831846","latitude":"37.600391","tags":"vegetables fruits"},{"type":"market","name":"Sunday Market on Main Street","website":"http://www.ColoradoFeedAndGrain.com/SundayMarket","facebook":"Facebook.com/COFeedGrain","twitter":"","street":"4138 Main St, Unit A","city":"Timnath","state":"CO","zip":"80547","longitude":"-104.981878","latitude":"40.529078","tags":"baked goods cheese crafts flowers eggs herbs vegetables honey jams meat nuts poultry prepared-foods soap wine coffee beans fruits grains juices pet food"},{"type":"market","name":"Telluride Farmers' Market","website":"http://www.thetelluridefarmersmarket.com","facebook":"https://www.facebook.com/thetelluridefarmersmarket/?modal=admin_todo_tour","twitter":"","street":"South Oak St","city":"Telluride","state":"CO","zip":"81435","longitude":"-107.8130860","latitude":"37.9368430","tags":"organic baked goods crafts flowers eggs seafood herbs vegetables honey jams meat plants poultry prepared-foods soap coffee fruits juices mushrooms tofu wild"},{"type":"market","name":"The Creede Farmers and Local Artisan Market","website":"http://www.creedefarmersmarket.com","facebook":"www.facebook.com/creedefarmersmarket","twitter":"www.twitter.com/creedemarket","street":"001 - 1st Street","city":"Creede","state":"CO","zip":"81130","longitude":"-106.926949","latitude":"37.852344","tags":"organic baked goods cheese crafts flowers eggs herbs vegetables jams meat prepared-foods soap fruits grains mushrooms"},{"type":"market","name":"The Orchard Farmers Market","website":"","facebook":"https://facebook.com/orchardfarmersmarket/","twitter":"","street":"14697 Delaware St","city":"Westminster ","state":"CO","zip":"80023","longitude":"-104.992071","latitude":"39.961115","tags":"baked goods cheese crafts vegetables honey jams meat nuts soap fruits"},{"type":"market","name":"Westcliffe Farm and Maker's Market","website":"http://www.westcliffefarmersmarket.com","facebook":"www.facebook.com/WestcliffeFarmersMarket","twitter":"","street":"315 Main Street, Jess Price Park","city":"Westcliffe","state":"CO","zip":"81252","longitude":"-105.466411","latitude":"38.136152","tags":"baked goods crafts vegetables honey jams meat poultry prepared-foods soap fruits pet food"}]
