[{"type":"farm","street":"15 Higley Hill","city":"Wilmington","state":"VT","zip":"05363","longitude":"-72.8498080","latitude":"42.9048500","name":"Adams Farm and Meat Processing Shop","website":"http://adamsfamilyfarm.com","facebook":"https://www.facebook.com/pages/Adams-Farm-Wilmington-Vermont/69664848032","twitter":"","tags":"canned preserved coffee tea eggs grains flour maple-products pet-food poultry fowl red-meat non-poultry-meat soap body-care"},{"type":"farm","street":"493 Coburn Hill Road","city":"Craftsbury","state":"VT","zip":"5827","longitude":"-72.4143300","latitude":"44.6628950","name":"Browns Beautiful Blueberries","website":"","facebook":"","twitter":"","tags":""},{"type":"farm","street":"567 Muzzy Road","city":"Berlin","state":"VT","zip":"05602","longitude":"-72.640011","latitude":"44.210772","name":"Burelli Farm","website":"www.burellifarm.com","facebook":"","twitter":"","tags":"poultry fowl"},{"type":"farm","street":"283 Cabot Plains Rd","city":"Cabot","state":"VT","zip":"5647","longitude":"-72.291750","latitude":"44.420976","name":"Burtt's Apple Orchard","website":"www.burttsappleorchard.com","facebook":"www.facebook.com/burtts.appleorchard","twitter":"","tags":"baked-goods fresh-fruits fresh-vegetables juices ciders maple-products"},{"type":"farm","street":"467 Sunset Lane","city":"Windsor","state":"VT","zip":"05089","longitude":"-72.4132690","latitude":"43.4587519","name":"Contented Butterfly Farm","website":"http://contentedbutterflyfarm.com/","facebook":"https://www.facebook.com/pages/Contented-Butterfly-Farm/142144959139880","twitter":"https://twitter.com/contentedsheep","tags":"crafts woodworking eggs red-meat non-poultry-meat"},{"type":"farm","street":"2534 Hill West Road","city":"Montgomery","state":"VT","zip":"05471","longitude":"-72.644756","latitude":"44.866276","name":"Creamery Bridge Farm","website":"Creamerybridgefarm.com","facebook":"https://www.facebook.com/creamerybridgefarm","twitter":"","tags":"fresh-vegetables wild-harvested forest-products"},{"type":"farm","street":"1462 Goulden Ridge Road","city":"Weathersfield","state":"VT","zip":"05156","longitude":"-72.433193","latitude":"43.384782","name":"Goulden Ridge Farm","website":"gouldenridgefarm.com","facebook":"","twitter":"","tags":"fresh-fruits nursery-stock"},{"type":"farm","street":"34 Langone Road","city":"Cabot","state":"VT","zip":"5647","longitude":"-72.2901459","latitude":"44.4086150","name":"Gozzard City at Provender Farm","website":"getyourgoose.com","facebook":"https://www.facebook.com/gozzardcity","twitter":"","tags":"poultry fowl"},{"type":"farm","street":"975 S. Windsor St","city":"South Royalton","state":"VT","zip":"05068","longitude":"-72.5098749","latitude":"43.8096690","name":"Hurricane Flats","website":"www.hurricaneflats.com","facebook":"https://www.facebook.com/HurricaneFlats","twitter":"","tags":"fresh-fruits fresh-vegetables"},{"type":"farm","street":"2297 Ethan Allen Highway (route 7)","city":"New Haven","state":"VT","zip":"5472","longitude":"-73.176670","latitude":"44.081882","name":"Lester Farm and Market","website":"contact@lesterfarmmarket.com","facebook":"https://www.facebook.com/LesterFarmProduce","twitter":"","tags":"baked-goods canned preserved cut-flowers dairy products dry beans eggs herbs fresh-fruits fresh-vegetables grains flour honey maple-products nuts"},{"type":"farm","street":"3425 Brandon Mountain Road","city":"Rochester","state":"VT","zip":"05767","longitude":"-72.8658430","latitude":"43.8546987","name":"Mom & Pop's World's Best Vermont Maple Syrup","website":"http://www.MomAndPopsMaple.com","facebook":"http://www.facebook.com/MomAndPopsMaple","twitter":"http://twitter.com/MomAndPopsMaple","tags":"maple-products"},{"type":"farm","street":"681 Osgood Hill Road","city":"Westford","state":"VT","zip":"5494","longitude":"-72.999891","latitude":"44.564191","name":"Morse Hillside Farm","website":"www Morse  Hillside Farm .com","facebook":"https://www.facebook.com/pages/Morse-Hillside-Farm/116904021679356","twitter":"","tags":"canned preserved fresh-fruits"},{"type":"farm","street":"17 Burke Park Rd.","city":"Brandon","state":"VT","zip":"05733","longitude":"-73.060414","latitude":"43.831267","name":"Noah's Ark Eggs","website":"","facebook":"https://www.facebook.com/pages/Noahs-Ark-Eggs/351171895026492?ref=bookmarks","twitter":"","tags":"eggs"},{"type":"farm","street":"177 Random Road","city":"Calais","state":"VT","zip":"5648","longitude":"-72.490576","latitude":"44.393099","name":"Random Gardens","website":"http://www.randomgardens.com/","facebook":"","twitter":"","tags":"fresh-fruits mushrooms wild-harvested forest-products"},{"type":"farm","street":"362 Woodward Road","city":"Walden","state":"VT","zip":"05843","longitude":"-72.102151","latitude":"44.4646851","name":"Square Deal Farm","website":"squaredealfarm.org","facebook":"","twitter":"","tags":"maple-products red-meat non-poultry-meat"},{"type":"farm","street":"Luce Hill","city":"Mansfield","state":"VT","zip":"5672","longitude":"-72.641413","latitude":"44.6058024","name":"The Farm at Morrison Corner","website":"http://www.WoolAndFeathers.com","facebook":"","twitter":"https://www.twitter.com/Outlander_Adv","tags":"crafts woodworking pet-food"},{"type":"farm","street":"663 Doyle Road","city":"Washington","state":"VT","zip":"05675","longitude":"-72.454976","latitude":"44.040666","name":"The Farm of Milk and Honey","website":"www.farmofmilkandhoney.com","facebook":"https://www.facebook.com/pages/The-Farm-of-Milk-and-Honey/472558206183989","twitter":"","tags":"dairy products honey"},{"type":"farm","street":"2246 Tyler Bridge Rd.","city":"Bristol","state":"VT","zip":"05443","longitude":"-73.098989","latitude":"44.266250","name":"The Last Resort Farm","website":"www.lastresortfarm.com","facebook":"last resort farm","twitter":"","tags":"canned preserved dry beans eggs fresh-fruits fresh-vegetables"},{"type":"farm","street":"1579 Riley Rd","city":"Franklin","state":"VT","zip":"05457","longitude":"-72.8954700","latitude":"44.9637490","name":"Wandering Moose Farms","website":"http://wanderingmoosefarms.com","facebook":"https://www.facebook.com/WanderingMooseFarms","twitter":"","tags":"baked-goods canned preserved eggs herbs fresh-vegetables"},{"type":"farm","street":"175 Plank Road","city":"Vergennes","state":"VT","zip":"05491","longitude":"-73.2318420","latitude":"44.1632800","name":"Woodman Hill Orchard","website":"","facebook":"https://www.facebook.com/pickyourownapples802","twitter":"","tags":"baked-goods canned preserved juices ciders maple-products"},{"type":"market","name":" Caledonia Farmers Market Association - Danville","website":"https://www.caledoniafarmersmarket.com","facebook":"https://www.facebook.com/Danville.VT.Farmers.Market/","twitter":"","street":"","city":"Danville","state":"VT","zip":"05828","longitude":"-72.140337","latitude":"44.411036","tags":"organic baked goods cheese crafts flowers eggs herbs vegetables honey jams maple meat poultry prepared-foods soap trees coffee beans fruits mushrooms pet food"},{"type":"market","name":"Arlington Village Farmers Market","website":"https://www.arlington-vermont.com/farmers-market","facebook":"https://www.facebook.com/Market05250","twitter":"","street":"3904 VT-7A","city":"Arlington","state":"VT","zip":"05250","longitude":"-73.146078","latitude":"43.072884","tags":"baked goods cheese crafts flowers eggs herbs vegetables honey jams maple meat nuts plants poultry prepared-foods soap coffee fruits mushrooms wild"},{"type":"market","name":"Brattleboro Area Farmers' Market","website":"http://www.brattleborofarmersmarket.com","facebook":"https://www.facebook.com/pages/Brattleboro-Area-Farmers-Market/197642043604505","twitter":"","street":"570 Western Ave.","city":"Brattleboro","state":"VT","zip":"05301","longitude":"-72.584070","latitude":"42.849900","tags":"organic baked goods cheese crafts flowers eggs herbs vegetables honey jams maple meat plants poultry prepared-foods soap wine coffee beans fruits juices mushrooms wild"},{"type":"market","name":"Brattleboro WInter Farmers' Market","website":"http://www.brattleborowinterfarmersmarket.org","facebook":"//www.facebook.com/BrattleboroWinterFarmersMarket","twitter":"//twitter.com/BrattWinterMkt","street":"80 Flat St.","city":"Brattleboro ","state":"VT","zip":"05301","longitude":"-72.560166","latitude":"42.850844","tags":"organic baked goods cheese crafts eggs herbs vegetables honey jams maple meat poultry prepared-foods soap coffee fruits juices wild"},{"type":"market","name":"Burlington Farmers Market","website":"https://www.burlingtonfarmersmarket.org/","facebook":"https://www.facebook.com/BurlingtonFarmersMarketVT","twitter":"","street":"345 Pine Street","city":"Burlington","state":"VT","zip":"05401","longitude":"-73.215415","latitude":"44.469730","tags":"organic baked goods cheese crafts flowers eggs seafood herbs vegetables honey jams maple meat nuts plants poultry prepared-foods soap wine coffee beans fruits juices mushrooms pet food tofu wild"},{"type":"market","name":"Caledonia Farmers Market Association - Winter","website":"https://www.caledoniafarmersmarket.com/","facebook":"https://www.facebook.com/St.J.Farmers.Market/","twitter":"","street":"Pearl St","city":"St. Johnsbury","state":"VT","zip":"05819","longitude":"-72.016831","latitude":"44.417224","tags":"organic baked goods cheese crafts flowers eggs seafood herbs vegetables honey jams maple meat poultry prepared-foods soap wine coffee beans fruits"},{"type":"market","name":"Champlain Islands Farmers' Market - Wednesday","website":"https://champlainislandsfarmersmarket.org/","facebook":"https://www.facebook.com/ChamplainIslandsFarmersMarket/","twitter":"","street":"501 U.S Route 2","city":"South Hero","state":"VT","zip":"05486","longitude":"-73.323048","latitude":"44.661841","tags":"organic baked goods crafts flowers eggs herbs vegetables honey jams maple meat plants poultry prepared-foods wine fruits"},{"type":"market","name":"Chelsea Farmers' Market","website":"http://www.chelseafarmersmarket.org","facebook":"https://www.facebook.com/chelseafarmersmarket","twitter":"","street":"Corner of Rte 110 and Rte 113","city":"Chelsea","state":"VT","zip":"05038","longitude":"-72.44747","latitude":"43.98878","tags":"baked goods cheese crafts flowers eggs herbs vegetables honey jams maple meat plants poultry prepared-foods soap coffee fruits juices mushrooms"},{"type":"market","name":"Fair Haven Market (hosted by The Vermont Farmers Market","website":"https://vtfarmersmarket.org/","facebook":"The Vermont Farmers Market","twitter":"@VFMRutland","street":"On The Green","city":"Fair Haven","state":"VT","zip":"05777","longitude":"-73.266531","latitude":"43.594490","tags":"baked goods crafts eggs vegetables honey jams maple plants poultry fruits"},{"type":"market","name":"Middlebury Farmers' Market","website":"","facebook":"Middlebury Farmers Market","twitter":"","street":"530 Exchange St","city":"Middlebury","state":"VT","zip":"05753","longitude":"-73.169908","latitude":"44.026734","tags":"baked goods cheese crafts flowers eggs herbs vegetables honey jams maple meat plants poultry prepared-foods soap beans fruits juices"},{"type":"market","name":"Peacham Farmers Market","website":"http://www.peachamfarmersmarket.com/","facebook":"https://m.facebook.com/PeachamFarmersMarket/","twitter":"","street":"555 Bayley Hazen Road","city":"Peacham","state":"VT","zip":"05862","longitude":"-72.170037","latitude":"44.327445","tags":"baked goods cheese crafts vegetables jams maple meat poultry prepared-foods fruits"},{"type":"market","name":"Stowe Farmers' Market","website":"http://www.stowefarmersmarket.com","facebook":"https://www.facebook.com/stowefarmersmarket","twitter":"","street":"1799 Mountain Road","city":"Stowe","state":"VT","zip":"05672","longitude":"-72.712004","latitude":"44.473531","tags":"organic baked goods cheese crafts flowers eggs herbs vegetables honey jams maple meat plants poultry prepared-foods soap wine coffee fruits juices mushrooms wild"},{"type":"market","name":"The West River Farmers Market","website":"http://westriverfarmersmarket.com","facebook":"@westriverfarmersmarket","twitter":"","street":"2242 N. Main St.","city":"Londonderry","state":"VT","zip":"05148","longitude":"-72.821619","latitude":"43.228259","tags":"organic baked goods cheese crafts flowers eggs herbs vegetables honey jams maple meat plants poultry prepared-foods soap trees coffee beans fruits grains juices mushrooms wild"},{"type":"market","name":"Townshend Farmers Market","website":"","facebook":"Townshend Farmers Market","twitter":"","street":"6573 Route 30","city":"West Townshend","state":"VT","zip":"05359","longitude":"-72.711717","latitude":"43.084256","tags":"baked goods crafts flowers eggs herbs vegetables honey jams maple meat plants poultry prepared-foods soap coffee fruits juices mushrooms wild"},{"type":"market","name":"Vermont Farmers Market","website":"https://vtfarmersmarket.org/","facebook":"The Vermont Farmers Market","twitter":"@VFMRutland","street":"Depot Park (at the Walmart Shopping Plaza)","city":"Rutland ","state":"VT","zip":"05701","longitude":"-72.980071","latitude":"43.605826","tags":"organic baked goods cheese crafts flowers eggs herbs vegetables honey jams maple meat plants poultry prepared-foods soap wine coffee beans fruits juices mushrooms pet food wild"},{"type":"market","name":"Vermont Farmers Market","website":"https://vtfarmersmarket.org/","facebook":"The Vermont Farmers Market","twitter":"@VFMRutland","street":"251 West Street","city":"RUTLAND","state":"VT","zip":"05701","longitude":"-72.985592","latitude":"43.607916","tags":"baked goods cheese crafts eggs herbs vegetables honey jams maple meat poultry prepared-foods soap wine coffee beans fruits juices mushrooms pet food wild"}]
