[{"type":"farm","street":"251 Lost Oak","city":"Bandera","state":"TX","zip":"78003","longitude":"-99.035729","latitude":"29.745359","name":"A Garden in Every Home","website":"http://www.agardenineveryhome.com/","facebook":"https://www.facebook.com/AGardenInEveryHome","twitter":"","tags":"bedding plants cut-flowers fresh-fruits nursery-stock"},{"type":"farm","street":"838 H. Wallace Ln.","city":"Rockwall","state":"TX","zip":"75032","longitude":"-96.436831","latitude":"32.875836","name":"A Touch of Earth Gardens","website":"","facebook":"https://www.facebook.com/pages/A-Touch-of-Earth-Gardens/204045213012249?pnref=lhc","twitter":"","tags":"baked-goods canned preserved crafts woodworking eggs herbs fresh-fruits fresh-vegetables honey"},{"type":"farm","street":"26319 Decker Prairie Rosehill Rd.","city":"Magnolia","state":"TX","zip":"77355","longitude":"-95.672724","latitude":"30.125433","name":"Bar M Ranch","website":"www.bmrcattle.com","facebook":"https://www.facebook.com/pages/Bar-M-Ranch/138325886265765","twitter":"","tags":"red-meat non-poultry-meat"},{"type":"farm","street":"6176 RIVER PARK PL","city":"EL PASO","state":"TX","zip":"79932","longitude":"-106.617364","latitude":"31.878107","name":"Blessed Organics LLC","website":"https://www.BlessedOrganicsLLC.com/","facebook":"","twitter":"","tags":"fresh-vegetables"},{"type":"farm","street":"10356 South State Hwy 94","city":"Trinity ","state":"TX","zip":"75862","longitude":"-95.307772","latitude":"30.996667","name":"Bluebonnet Berries","website":"bjtjwt@msn.com","facebook":"","twitter":"","tags":"fresh-fruits"},{"type":"farm","street":"5349 FM 244","city":"Anderson ","state":"TX","zip":"","longitude":"-95.9248034","latitude":"30.4618557","name":"Briers Simmental Ranch","website":"","facebook":"https://www.facebook.com/BriersSimmentalRanch","twitter":"","tags":""},{"type":"farm","street":"13817 Klaus Lane","city":"Elgin","state":"TX","zip":"78621","longitude":"-97.4285170","latitude":"30.3619800","name":"Coyote Creek Organic Farm and Feed Mill","website":"CoyoteCreekFarm.com","facebook":"https://www.facebook.com/pages/Coyote-Creek-Organic-Feed-Mill-and-Farm/119211684770073?ref=hl","twitter":"https://twitter.com/CoyoteCreekFarm","tags":"eggs"},{"type":"farm","street":"1166 CR 210","city":"Weimar","state":"TX","zip":"78962","longitude":"-96.704865","latitude":"29.679000","name":"Cuts Of Color","website":"www.cutsofcolor.com","facebook":"https://www.facebook.com/pages/Cuts-Of-Color/114984438567908","twitter":"","tags":"cut-flowers"},{"type":"farm","street":"15970 highway 271","city":"Tyler","state":"TX","zip":"75708","longitude":"-95.141124","latitude":"32.437659","name":"Deep Creek Farm","website":"","facebook":"","twitter":"","tags":"canned preserved cut-flowers fresh-fruits honey"},{"type":"farm","street":"5619 FM 1624","city":"Lexington","state":"TX","zip":"78947","longitude":"-97.027186","latitude":"30.403759","name":"Dewberry Hills Farm","website":"www.dhfarms.com","facebook":"https://www.facebook.com/pages/Dewberry-Hills-Farm/282475245128234","twitter":"","tags":"poultry fowl"},{"type":"farm","street":"7235 FM 607","city":"Brownsboro","state":"TX","zip":"75778","longitude":"-95.6408542","latitude":"32.2439146","name":"Echo Springs Blueberry Farm","website":"www.echospringsblueberyfarm.com","facebook":"","twitter":"","tags":"baked-goods bedding plants canned preserved coffee tea crafts woodworking herbs fresh-fruits fresh-vegetables grains flour honey juices ciders maple-products nursery-stock prepared-foods soap body-care"},{"type":"farm","street":"","city":"Corpus Christi","state":"TX","zip":"78413","longitude":"-97.402830","latitude":"27.682065","name":"Ficarro Farms","website":"ficarrofarms.com","facebook":"","twitter":"twitter.com/lfficarro","tags":"coffee tea herbs pet-food wild-harvested forest-products"},{"type":"farm","street":"11366 Hahn Rd","city":"Sealy","state":"TX","zip":"77474","longitude":"-96.303691","latitude":"29.801639","name":"Flaylers Fruit Farm","website":"","facebook":"","twitter":"","tags":"fresh-fruits fresh-vegetables"},{"type":"farm","street":"8564 County Road 4912","city":"Ladonia","state":"TX","zip":"75449","longitude":"-95.868255","latitude":"33.379028","name":"FLOHAS Farms","website":"flohasfarms.com","facebook":"","twitter":"","tags":"eggs fresh-fruits fresh-vegetables honey"},{"type":"farm","street":"780 Burton St.","city":"Alvin","state":"TX","zip":"77511","longitude":"-95.2694080","latitude":"29.4172010","name":"Funky Monkey Farms, LLC","website":"Www.funkymonkeyfarms.com","facebook":"","twitter":"","tags":"baked-goods bedding plants dairy products eggs herbs fresh-fruits fresh-vegetables soap body-care"},{"type":"farm","street":"","city":"KEMAH","state":"TX","zip":"77565","longitude":"-95.027307","latitude":"29.528392","name":"Gardenkids of Kemah","website":"www.gardenkidskemah.org","facebook":"www.facebook.com/gardenkidskemah","twitter":"","tags":"bedding plants herbs fresh-vegetables"},{"type":"farm","street":"2826 West Lake Road, ","city":"Abilene","state":"TX","zip":"79601","longitude":"-99.7252880","latitude":"32.4825850","name":"Grapevine Farms","website":"www.grapevinefarms.com","facebook":"grapevinefarms","twitter":"","tags":"canned preserved eggs herbs fresh-vegetables honey poultry fowl"},{"type":"farm","street":"170 Yates Street","city":"Hawkins","state":"TX","zip":"75765","longitude":"-95.2070622","latitude":"32.5975978","name":"Hawkins Organic","website":"","facebook":"","twitter":"","tags":"fresh-fruits"},{"type":"farm","street":"14255 Old Denton Road","city":"Roanoke","state":"TX","zip":"76262","longitude":"-97.297603","latitude":"32.986277","name":"Henrietta Creek Orchard","website":"Henrietta creek orchard.com","facebook":"https://www.facebook.com/HenriettaCreekAppleOrchard","twitter":"","tags":""},{"type":"farm","street":"1350 Stoney Creek Dr","city":"Cedar Hill","state":"TX","zip":"75104","longitude":"-96.937545","latitude":"32.561252","name":"Honey's Acres Farm","website":"","facebook":"Honey's Acres Farm","twitter":"","tags":"baked-goods canned preserved eggs herbs fresh-vegetables grains flour honey poultry fowl red-meat non-poultry-meat"},{"type":"farm","street":"16100 FM 2590","city":"Amarillo","state":"TX","zip":"79119","longitude":"-101.9375880","latitude":"35.0464500","name":"Honey's Farm Fresh","website":"www.honeysfarmfresh.com","facebook":"https://www.facebook.com/pages/Honeys-Farm-Fresh/201738469838822","twitter":"","tags":"eggs honey poultry fowl soap body-care"},{"type":"farm","street":"10401 Scott Street","city":"Houston ","state":"TX","zip":"77051","longitude":"-95.367588","latitude":"29.645582","name":"Hope Farms Market","website":"Www.hopefarmshtx.org","facebook":"@HopeFarmsHTX","twitter":"","tags":"bedding plants cut-flowers eggs herbs fresh-fruits fresh-vegetables honey"},{"type":"farm","street":"11351 County Road 203","city":"Plantersville","state":"TX","zip":"77363","longitude":"-95.821647","latitude":"30.325124","name":"Jollisant Farms Strawberry & Vegetable Garden","website":"www.Jollisantfarms.com","facebook":"https://www.facebook.com/jollisantfarm","twitter":"","tags":"eggs fresh-fruits fresh-vegetables honey"},{"type":"farm","street":"8371 Bottoms Road","city":"Troy","state":"TX","zip":"76569","longitude":"-97.260941","latitude":"31.160251","name":"JZJ Natural Beef","website":"jzjbeefmasters.com and jzjnaturalbeef.com","facebook":"","twitter":"","tags":""},{"type":"farm","street":"16602 Farm Road 410 North","city":"Detroit","state":"TX","zip":"75436","longitude":"-95.223135","latitude":"33.878438","name":"Kiomatia Blueberry Farm","website":"","facebook":"https://www.facebook.com/pages/Kiomatia Blueberry Farm/437803346331761","twitter":"","tags":"fresh-fruits"},{"type":"farm","street":"287 County Road 2495","city":"Hico","state":"TX","zip":"76457","longitude":"-97.964857","latitude":"31.991469","name":"Liberty Farms Dairy","website":"www.libertdairyfarms.com","facebook":"https://www.facebook.com/libertyfarmsdairy","twitter":"","tags":"dairy products"},{"type":"farm","street":"15906 County Line Rd.","city":"Elgin","state":"TX","zip":"78621","longitude":"-97.390609","latitude":"30.394821","name":"Lund Produce Co. Branchgrove Farms","website":"","facebook":"","twitter":"","tags":"bedding plants fresh-fruits fresh-vegetables"},{"type":"farm","street":"FM 1776 And Watermelon Row","city":"Coyanosa","state":"TX","zip":"79730","longitude":"-103.067564","latitude":"31.263145","name":"Mandujano Brothers","website":"","facebook":"www.facebook.com/mandujanobrothersproduce","twitter":"","tags":"fresh-fruits fresh-vegetables prepared-foods"},{"type":"farm","street":"2408 Hamrock Rd","city":"Italy","state":"TX","zip":"76651","longitude":"-96.862786","latitude":"32.100708","name":"Mill Creek Meat Company LLC","website":"millcreekmeatcompany.com","facebook":"","twitter":"","tags":"red-meat non-poultry-meat"},{"type":"farm","street":"672 fm 4116","city":"Campbell ","state":"TX","zip":"75422","longitude":"-95.888151","latitude":"33.144244","name":"Moleyville Farms","website":"","facebook":"","twitter":"","tags":"honey"},{"type":"farm","street":"20826 Blake Manor Rd.","city":"Manor","state":"TX","zip":"78653","longitude":"-97.4827530","latitude":"30.2618250","name":"Munkebo Farm","website":"www.munkebofarm.com","facebook":"","twitter":"","tags":""},{"type":"farm","street":"976 county rd 351","city":"Gause","state":"TX","zip":"77857","longitude":"-96.641107","latitude":"30.764064","name":"Natural Pasture Farms","website":"https://www.naturalpasturefarms.com","facebook":"","twitter":"","tags":"crafts woodworking eggs fresh-vegetables poultry fowl red-meat non-poultry-meat"},{"type":"farm","street":"9963 Pooles Road","city":"Montgomery","state":"TX","zip":"77356","longitude":"-95.7353421","latitude":"30.3945978","name":"P-6 Farms","website":"www.p-6farms.com","facebook":"https://www.facebook.com/pages/P-6-Farms/230130763705630","twitter":"","tags":"canned preserved coffee tea crafts woodworking eggs fresh-fruits fresh-vegetables honey juices ciders prepared-foods red-meat non-poultry-meat"},{"type":"farm","street":"18611 Becker Rd","city":"Hockley","state":"TX","zip":"77447","longitude":"-95.799977","latitude":"30.045827","name":"Partybarn Farm","website":"www.partybarnfarm.com","facebook":"www.Facebook.com/PartybarnFarm","twitter":"","tags":"dry beans eggs fresh-vegetables grains flour honey"},{"type":"farm","street":"1785 Waldo Road","city":"Oglesby","state":"TX","zip":"76561","longitude":"-97.5318352","latitude":"31.4786277","name":"Punkin Center Berry Farm","website":"punkincenterberryfarm.com","facebook":"https://www.facebook.com/pages/Punkin-Center-Berry-Farm/498097476896300","twitter":"","tags":"fresh-fruits fresh-vegetables"},{"type":"farm","street":"5261 CR 4738","city":"Cumby","state":"TX","zip":"75433","longitude":"-95.7738510","latitude":"33.2184740","name":"Rockin Bar B Ranch","website":"","facebook":"Bobbi Smith","twitter":"","tags":""},{"type":"farm","street":"1057 County Road 2732","city":"Alto","state":"TX","zip":"75925","longitude":"-94.9915788","latitude":"31.5267890","name":"Ruby-Farm","website":"ruby-farm.com","facebook":"","twitter":"","tags":"canned preserved fresh-vegetables"},{"type":"farm","street":"3857 FM 2264","city":"Decatur","state":"TX","zip":"76234","longitude":"-97.439859","latitude":"33.184096","name":"SB Longhorns","website":"www.sblonghorns.com","facebook":"","twitter":"","tags":"red-meat non-poultry-meat"},{"type":"farm","street":"19892 N STATE HWY 34","city":"TERRELL","state":"TX","zip":"75161","longitude":"-96.196888","latitude":"32.814598","name":"SerenityFarm.farm","website":"SerenityFarm.farm","facebook":"https://www.facebook.com/larkinfarm","twitter":"","tags":"eggs poultry fowl red-meat non-poultry-meat"},{"type":"farm","street":"","city":"Diboll","state":"TX","zip":"","longitude":"-94.768853","latitude":"31.261484","name":"Spoiled Hen Coop and Run","website":"","facebook":"","twitter":"","tags":"eggs"},{"type":"farm","street":"6427 South Farm Road 225","city":"Nacogdoches","state":"TX","zip":"75964","longitude":"-94.5037891","latitude":"31.4432005","name":"Stoney Brook Farm","website":"Stoneybrookfrm@sbcglobal","facebook":"","twitter":"","tags":"bedding plants canned preserved fresh-fruits fresh-vegetables nursery-stock"},{"type":"farm","street":"1504 County Road 532. Post Office Box 103","city":"Hondo","state":"TX","zip":"78861","longitude":"-99.146618","latitude":"29.308190","name":"Sun Seasons","website":"","facebook":"","twitter":"","tags":"fresh-fruits"},{"type":"farm","street":"1003 private rd 3081","city":"Lexington ","state":"TX","zip":"78947","longitude":"-97.158258","latitude":"30.384445","name":"Taylor Farm","website":"Taylor farm.org","facebook":"Www.facebook.com/taylorstxfarm","twitter":"","tags":"eggs pet-food poultry fowl red-meat non-poultry-meat soap body-care"},{"type":"farm","street":"2965 State Highway 24","city":"Campbell","state":"TX","zip":"75422","longitude":"-95.931503","latitude":"33.183129","name":"Texas A&M University-Commerce Twin Oaks Blueberry Farm","website":"www.tamuc.edu/blueberry","facebook":"www.facebook.com/twinoaksblueberryfarm","twitter":"","tags":"baked-goods canned preserved fresh-fruits grains flour honey nuts"},{"type":"farm","street":"15631 Autumn Oaks Ln","city":"Iola","state":"TX","zip":"77861","longitude":"-96.110927","latitude":"30.699648","name":"Texas US Farms","website":"www.texasusfarms.com","facebook":"https://www.facebook.com/TexasUSfarms/?ref=bookmarks","twitter":"","tags":"bedding plants canned preserved coffee tea crafts woodworking herbs fresh-vegetables soap body-care"},{"type":"farm","street":"442 CR 233","city":"Hallettsville","state":"TX","zip":"77964","longitude":"-96.9271524","latitude":"29.5629932","name":"The Herb Cottage","website":"http://theherbcottage.com","facebook":"https://www.facebook.com/theherbcottage","twitter":"https://twitter.com/herbiecott","tags":"bedding plants nursery-stock"},{"type":"farm","street":"2409 E. 4 Mile Line","city":"Mission","state":"TX","zip":"78573","longitude":"-98.275300","latitude":"26.267234","name":"Thompson Farm Market","website":"","facebook":"","twitter":"","tags":"canned preserved fresh-fruits fresh-vegetables honey juices ciders nuts"},{"type":"farm","street":"14025 Oak Lake Village Dr","city":"Needville ","state":"TX","zip":"77461","longitude":"-95.6582598","latitude":"29.4089580","name":"Three Sisters Farm","website":"","facebook":"","twitter":"","tags":"canned preserved eggs herbs fresh-vegetables honey soap body-care"},{"type":"farm","street":"5301 County Road 1260","city":"Lubbock","state":"TX","zip":"79407","longitude":"-102.030074","latitude":"33.544297","name":"WCF Neighborhood Farmers Market","website":"Wcfarmstx.com","facebook":"@wcfarmstx","twitter":"","tags":"baked-goods bedding plants canned preserved coffee tea crafts woodworking cut-flowers dairy products dry beans eggs herbs fresh-fruits fresh-vegetables grains flour honey maple-products mushrooms poultry fowl prepared-foods red-meat non-poultry-meat soap body-care"},{"type":"farm","street":"5301 County Road 1260","city":"Lubbock","state":"TX","zip":"79407","longitude":"-102.029668","latitude":"33.545375","name":"Wolf Creek Farms","website":"wolfcreekfarmsonline.com","facebook":"","twitter":"https://www.twitter.com/wolfcreekfarms","tags":"herbs fresh-vegetables soap body-care"},{"type":"market","name":"Alamo Heights Farmers Market","website":"","facebook":"https://www.facebook.com/AlamoHeightsFarmersMarket/","twitter":"https://twitter.com/AlamoHeightsFM","street":"255 E Basse","city":"San Antonio ","state":"TX","zip":"78209","longitude":"-98.481174","latitude":"29.493258","tags":"baked goods cheese eggs herbs vegetables honey jams maple meat nuts poultry prepared-foods soap coffee fruits juices pet food"},{"type":"market","name":"Bastrop 1832 Farmers Market","website":"http://www.bastrop1832farmersmarket.org","facebook":"https://www.facebook.com/pages/Bastrop-1832-Farmers-Market/118950738119102","twitter":"https://twitter.com/bastrop1832","street":"1302 Chestnut Street","city":"Bastrop","state":"TX","zip":"78602","longitude":"-97.311627","latitude":"30.111777","tags":"baked goods crafts eggs herbs vegetables honey jams meat nuts plants poultry prepared-foods soap trees coffee fruits juices pet food"},{"type":"market","name":"Bay Area Farmers Market ","website":"https://www.bayareafarmersmarkettexas.com/","facebook":"https://www.facebook.com/bayareafarmersmarket/?modal=admin_todo_tour","twitter":"","street":"500 Baybrook Mall Drive","city":"Friendswood","state":"TX","zip":"77546","longitude":"-95.150682","latitude":"29.548702","tags":"baked goods flowers eggs seafood herbs vegetables honey jams meat nuts poultry prepared-foods soap wine coffee fruits juices mushrooms pet food wild"},{"type":"market","name":"Beaumont Farmers' Market","website":"http://www.beaumontfarmersmarket.org","facebook":"Beaumont Farmers Market","twitter":"","street":"","city":"Beaumont, ","state":"TX","zip":"77707","longitude":"-94.169203","latitude":"30.067686","tags":"baked goods crafts flowers eggs seafood herbs vegetables honey jams meat plants poultry prepared-foods soap trees coffee fruits wild"},{"type":"market","name":"Braeswood Farmers Market","website":"http://www.braeswoodfarmersmarket.com","facebook":"https://www.facebook.com/braeswoodfarmersmarket","twitter":"","street":"5401 south braeswood","city":"Houston","state":"TX","zip":"77096","longitude":"-95.477537","latitude":"29.676944","tags":"organic baked goods crafts flowers eggs seafood herbs vegetables honey jams maple meat nuts poultry prepared-foods soap wine coffee fruits grains juices mushrooms pet food wild"},{"type":"market","name":"Buy Local Farmers Market - Fall Creek","website":"https://www.facebook.com/buylocalfarmersmarket/","facebook":"https://www.facebook.com/buylocalfarmersmarket/","twitter":"","street":"7930 Fall Creek Bend","city":"Humble","state":"TX","zip":"77396","longitude":"-95.26831","latitude":"29.988144","tags":"organic baked goods cheese eggs seafood herbs vegetables honey jams meat nuts poultry prepared-foods soap wine coffee fruits grains juices mushrooms pet food wild"},{"type":"market","name":"Celina's Friday Night Market","website":"http://celinamarketonthesquare.com/","facebook":"https://www.facebook.com/FridayNightMarketCelina/","twitter":"","street":"142 N Ohio Street","city":"Celina","state":"TX","zip":"75009","longitude":"-96.7869845","latitude":"33.3247511","tags":"baked goods cheese crafts eggs herbs vegetables honey jams meat poultry prepared-foods soap wine coffee fruits juices mushrooms pet food"},{"type":"market","name":"Cleburne Farmers Market","website":"","facebook":"Cleburne Farmer's Market","twitter":"","street":"141 S Ridgeway Drive","city":"Cleburne","state":"TX","zip":"76033","longitude":"-97.407713","latitude":"32.339893","tags":"baked goods cheese crafts eggs herbs vegetables honey jams maple meat poultry prepared-foods soap coffee fruits pet food"},{"type":"market","name":"Colwell's Farmers Market","website":"","facebook":"https://www.facebook.com/colwellmarket","twitter":"","street":"9079 HWY377","city":"Collinsville ","state":"TX","zip":"76240","longitude":"-96.9110998","latitude":"33.5491175","tags":"eggs vegetables honey jams plants soap fruits"},{"type":"market","name":"Corpus Christi Downtown Farmers' Market","website":"http://www.ccdowntownfm.com","facebook":"https://www.facebook.com/CorpusChristiDowntownFarmersMarket/","twitter":"https://twitter.com/ccdowntownfm","street":"100 N Shoreline Blvd","city":"Corpus Christi ","state":"TX","zip":"78401","longitude":"-97.392206","latitude":"27.791601","tags":"baked goods cheese crafts flowers eggs herbs vegetables honey jams meat nuts plants poultry prepared-foods soap wine coffee beans fruits juices mushrooms pet food wild"},{"type":"market","name":"Cowtown Farmers Market","website":"http://www.cowtownmarket.com","facebook":"@cowtownfarmersmkt","twitter":"","street":"3821 SOUTHWEST BLVD","city":"Fort Worth ","state":"TX","zip":"","longitude":"-97.442048","latitude":"32.716447","tags":"baked goods cheese flowers eggs herbs vegetables honey jams meat nuts plants poultry prepared-foods soap coffee fruits mushrooms pet food"},{"type":"market","name":"Downtown Canton Farmers Market","website":"https://www.cantonmainstreet.org/farmers-market/","facebook":"https://www.facebook.com/CantonTexasMainStreetProgram?ref=hl","twitter":"","street":"202 N. Buffalo St.","city":"Canton","state":"TX","zip":"75103","longitude":"-95.863185","latitude":"32.557360","tags":"organic baked goods eggs herbs vegetables honey jams maple meat plants poultry prepared-foods soap trees coffee fruits grains juices wild"},{"type":"market","name":"Downtown Denison Farmers Market","website":"http://www.downtowndenisonfarmersmarket.com","facebook":"https://www.facebook.com/denison.farmermarket?fref=ts","twitter":"","street":"701 W. Main St.","city":"Denison","state":"TX","zip":"75020","longitude":"-96.545350","latitude":"33.755828","tags":"baked goods crafts flowers eggs herbs vegetables honey jams meat nuts plants soap fruits"},{"type":"market","name":"Eagle Springs Farmers Market","website":"https://www.insideeaglesprings.com/farmers-markey/","facebook":"https://www.facebook.com/buylocalfarmersmarket","twitter":"","street":"13555 Valley Lodge Parkway","city":"Atascocita","state":"TX","zip":"77346","longitude":"-95.194557","latitude":"29.975941","tags":"organic baked goods eggs seafood herbs vegetables honey jams meat poultry prepared-foods soap coffee fruits juices mushrooms pet food wild"},{"type":"market","name":"East End Market","website":"http://eastendfoundation.org","facebook":"https://www.facebook.com/eastendfarmersmarket/","twitter":"https://twitter.com/eestreetmarket","street":"2600 Navigation Blvd.","city":"Houston","state":"TX","zip":"77003","longitude":"-95.342978","latitude":"29.757511","tags":"baked goods cheese crafts flowers eggs seafood herbs vegetables honey jams meat nuts plants poultry prepared-foods soap wine coffee fruits juices mushrooms pet food"},{"type":"market","name":"Elgin Farmers' Market","website":"http://Elginfarmersmarket.com","facebook":"@elgintxfarmersmarket","twitter":"","street":"","city":"Elgin","state":"TX","zip":"78621","longitude":"-97.370756","latitude":"30.346425","tags":"baked goods crafts flowers eggs herbs vegetables honey jams meat nuts plants poultry prepared-foods soap coffee fruits"},{"type":"market","name":"Ennis Farmers Market","website":"http://ennistx.com/farmers-market","facebook":"https://www.facebook.com/ennistxfarmersmarket/?ref=bookmarks","twitter":"","street":"104 North McKinney Street ","city":"Ennis ","state":"TX","zip":"75119","longitude":"-96.629391","latitude":"32.327630","tags":"baked goods crafts flowers eggs herbs vegetables honey jams maple meat nuts plants prepared-foods soap trees coffee beans fruits grains pet food"},{"type":"market","name":"Farmers Branch Market","website":"http://www.farmersbranchmarket.com/","facebook":"www.facebook.com/farmersbranchmarket","twitter":"","street":"12700 Denton Drive","city":"Farmers Branch","state":"TX","zip":"75234","longitude":"-96.8952798","latitude":"32.9178496","tags":"baked goods crafts eggs vegetables honey jams poultry soap wine coffee fruits pet food"},{"type":"market","name":"Freiheit Village Farmers Market","website":"http://www.freiheitvillagefm.com","facebook":"www.facebook.com/freiheitvillagefm","twitter":"","street":"2032 Central Plaza","city":"New Braunfels","state":"TX","zip":"78130","longitude":"-98.072988","latitude":"29.717952","tags":"baked goods crafts flowers eggs vegetables honey jams meat plants prepared-foods soap wine coffee fruits juices"},{"type":"market","name":"Friendswood Farmers Market","website":"http://friendswoodmarket.com","facebook":"https://www.facebook.com/FriendswoodMarket","twitter":"","street":"1100 S Friendswood Dr.","city":"Friendswood","state":"TX","zip":"77546","longitude":"-95.191302","latitude":"29.520767","tags":"organic baked goods eggs seafood herbs vegetables honey jams meat nuts plants poultry prepared-foods soap trees coffee fruits grains juices mushrooms pet food"},{"type":"market","name":"Fulshear Farmers' Market","website":"http://fulshearfarmersmarket.com/","facebook":"https://www.facebook.com/foreverfulshear/","twitter":"","street":"9035 Bois d'Arc Lane","city":"Fulshear ","state":"TX","zip":"77406","longitude":"-95.888475","latitude":"29.690226","tags":"baked goods cheese crafts flowers eggs seafood herbs vegetables honey jams meat nuts plants poultry prepared-foods soap trees wine coffee beans fruits grains juices mushrooms pet food tofu wild"},{"type":"market","name":"Get Moving Houston Farmers Market - Acres Homes","website":"http://gohealthyhouston.org/farmersmarkets/","facebook":"www.facebook.com/gohealthyhouston/","twitter":"twitter.com/GoHealthyHTX","street":"6719 W. Montgomery ","city":"Houston","state":"TX","zip":"77091","longitude":"-95.422239","latitude":"29.857439","tags":"vegetables fruits"},{"type":"market","name":"Get Moving Houston Farmers Market - Denver Harbor ","website":"http://gohealthyhouston.org/farmersmarkets/","facebook":"www.facebook.com/gohealthyhouston/","twitter":"twitter.com/GoHealthyHTX","street":"6402 Market St. ","city":"Houston","state":"TX","zip":"77020","longitude":"-95.386342","latitude":"29.780472","tags":"vegetables fruits"},{"type":"market","name":"Get Moving Houston Farmers Market - Hiram Clarke ","website":"http://gohealthyhouston.org/farmersmarkets/","facebook":"www.facebook.com/gohealthyhouston/","twitter":"twitter.com/GoHealthyHTX","street":"3810 W. Fuqua St. ","city":"Houston","state":"TX","zip":"77045","longitude":"-95.433550","latitude":"29.614043","tags":"vegetables fruits"},{"type":"market","name":"Get Moving Houston Farmers Market - Magnolia","website":"http://gohealthyhouston.org/farmersmarkets/","facebook":"www.facebook.com/gohealthyhouston/","twitter":"twitter.com/GoHealthyHTX","street":"7037 Capitol St. 77011","city":"Houston","state":"TX","zip":"77011","longitude":"-95.300902","latitude":"29.734482","tags":"vegetables fruits"},{"type":"market","name":"Get Moving Houston Farmers Market - Northeast","website":"http://gohealthyhouston.org/farmersmarkets/","facebook":"www.facebook.com/gohealthyhouston/","twitter":"twitter.com/GoHealthyHTX","street":"9720 Spaulding St. 77016","city":"Houston","state":"TX","zip":"77016","longitude":"-95.304197","latitude":"29.851549","tags":"vegetables fruits"},{"type":"market","name":"Get Moving Houston Farmers Market - Southwest","website":"http://gohealthyhouston.org/farmersmarkets/","facebook":"www.facebook.com/gohealthyhouston/","twitter":"twitter.com/GoHealthyHTX","street":"6400 High Star Dr. ","city":"Houston ","state":"TX","zip":"77074","longitude":"-95.496227","latitude":"29.711246","tags":"vegetables fruits"},{"type":"market","name":"Get Moving Houston Farmers Market - Sunnyside","website":"http://gohealthyhouston.org/farmersmarkets/","facebook":"www.facebook.com/gohealthyhouston/","twitter":"twitter.com/GoHealthyHTX","street":"9314 Cullen St. 77051","city":"Houston","state":"TX","zip":"77051","longitude":"-95.356477","latitude":"29.656412","tags":"vegetables fruits"},{"type":"market","name":"Good Local Markets White Rock Farmers Market","website":"http://goodlocalmarkets.org","facebook":"","twitter":"","street":"9150 Garland Road","city":"Dallas","state":"TX","zip":"75218","longitude":"-96.706451","latitude":"32.829956","tags":"baked goods flowers eggs vegetables honey soap coffee fruits mushrooms"},{"type":"market","name":"Harker Heights Farmers Market","website":"http://www.ci.harker-heights.tx.us/index.php/programs-a-events/farmers-market","facebook":"https://www.facebook.com/harkerheightspr/","twitter":"","street":"850 West Central Texas Expressway","city":"Harker Heights","state":"TX","zip":"76548","longitude":"-97.681611","latitude":"31.073245","tags":"baked goods crafts eggs herbs vegetables honey jams meat nuts poultry prepared-foods soap coffee fruits grains juices pet food"},{"type":"market","name":"Hutto Farmers Market","website":"http://www.huttotx.gov","facebook":"Downtown Huto","twitter":"N/A","street":"208 East Street","city":"Hutto","state":"TX","zip":"78634","longitude":"-97.548336","latitude":"30.545152","tags":"organic baked goods cheese crafts flowers eggs vegetables honey jams meat plants poultry prepared-foods soap fruits pet food"},{"type":"market","name":"Keller Farmers Market","website":"https://www.kellerfarmersmarket.com/","facebook":"https://www.facebook.com/KellerFarmersMarket/","twitter":"https://twitter.com/KellerFarmersM","street":"400 Bear Creek Parkway","city":"Keller ","state":"TX","zip":"76248","longitude":"-97.243807","latitude":"32.926757","tags":"organic baked goods cheese crafts flowers eggs herbs vegetables honey jams meat nuts plants poultry prepared-foods soap coffee beans fruits mushrooms pet food tofu"},{"type":"market","name":"Kingwood Farmers Market","website":"https://www.towncenterevents.com/farmersmarket.html","facebook":"https://www.facebook.com/kingwoodfarmersmarket","twitter":"","street":"2814 Town Center Circle","city":"Kingwood","state":"TX","zip":"77339","longitude":"-95.184629","latitude":"30.047327","tags":"organic meat prepared-foods soap wild"},{"type":"market","name":"Lakewood Village Farmers Market","website":"http://goodlocalmarkets.org","facebook":"","twitter":"","street":"6434 E Mockingbird Lane","city":"Dallas","state":"TX","zip":"75218","longitude":"-96.751083","latitude":"32.835725","tags":"baked goods flowers eggs vegetables honey soap coffee fruits mushrooms"},{"type":"market","name":"Legacy Farmers Market","website":"http://legacyfarmersmarket.com","facebook":"www.facebook.com/LegacyFarmersMarket","twitter":"","street":" 18402 US Highway 281 N","city":"San Antonio","state":"TX","zip":"78259","longitude":"-98.465436","latitude":"29.609419","tags":"baked goods cheese crafts eggs vegetables honey jams meat nuts soap coffee fruits pet food"},{"type":"market","name":"Mansfield Farmers Market","website":"http://www.mansfieldtxfarmersmarket.com","facebook":"www.facebook.com/mansfieldtxfarmersmarket","twitter":"","street":"703 East Broad Street","city":"Mansfield","state":"TX","zip":"76063","longitude":"-97.134052","latitude":"32.564588","tags":"baked goods cheese crafts eggs herbs vegetables honey jams meat plants prepared-foods soap trees coffee beans fruits grains"},{"type":"market","name":"Mineola Main Street Farmers Market","website":"https://mineolafarmersmarket.com/","facebook":"https://www.facebook.com/mineolafarmersmarket/","twitter":"","street":"115 E. Front St.","city":"Mineola","state":"TX","zip":"75773","longitude":"-95.489641","latitude":"32.662165","tags":"baked goods crafts flowers eggs herbs vegetables honey jams meat plants poultry prepared-foods soap coffee beans fruits juices"},{"type":"market","name":"Mission Marquee Plaza Farmers' Market","website":"","facebook":"","twitter":"","street":"3100 Roosevelt Ave","city":"San Antonio","state":"TX","zip":"78214","longitude":"-98.525142","latitude":"29.472403","tags":"vegetables fruits"},{"type":"market","name":"New Braunfels Food Bank Farmers' Market","website":"","facebook":"","twitter":"","street":"1620 S. Seguin Ave","city":"New Braunfels","state":"TX","zip":"78130","longitude":"-98.115109","latitude":"29.699301","tags":"vegetables fruits"},{"type":"market","name":"Palo Alto College Farmers Market","website":"","facebook":"","twitter":"","street":"1400 W Villaret Blvd","city":"San Antonio","state":"TX","zip":"78224","longitude":"-98.543052","latitude":"29.321634","tags":"vegetables jams prepared-foods fruits juices tofu"},{"type":"market","name":"Peach Street Farmers Market","website":"http://Www.psfmarket.org","facebook":"Peach Street Farmers Market","twitter":"Psfmarket","street":"234 S. Arcola St.","city":"Angleton ","state":"TX","zip":"77515","longitude":"-95.428973","latitude":"29.169195","tags":"baked goods crafts flowers eggs herbs vegetables jams plants coffee fruits"},{"type":"market","name":"Pedernales Farmers Market","website":"","facebook":"facebook.com/pedernalesfarmersmarket","twitter":"","street":"23526 TX-71","city":"Spicewood","state":"TX","zip":"78669","longitude":"-98.084871","latitude":"30.387133","tags":"baked goods crafts flowers eggs seafood herbs vegetables honey jams meat plants poultry soap fruits grains pet food wild"},{"type":"market","name":"Pflugerville Pfarmers Market","website":"http://www.pflugervilletx.gov/pfarmersmarket","facebook":"","twitter":"","street":"901 Old Austin Hutto Road","city":"Pflugerville","state":"TX","zip":"78660","longitude":"-97.606001","latitude":"30.442585","tags":"organic baked goods crafts flowers eggs herbs vegetables honey jams meat nuts plants poultry prepared-foods soap coffee fruits mushrooms pet food wild"},{"type":"market","name":"Pica Pica Plaza Farmers' Market","website":"","facebook":"","twitter":"","street":"910 SE Military Dr","city":"San Antonio","state":"TX","zip":"78214","longitude":"-98.525142","latitude":"29.472403","tags":"vegetables fruits"},{"type":"market","name":"Rose City Farmers Market","website":"http://www.foodcoalition.org","facebook":"www.facebook.com/rosecityfarmersmarket","twitter":"","street":"302 S. Broadway Ave.","city":"Tyler","state":"TX","zip":"75701","longitude":"-95.300309","latitude":"32.347948","tags":"baked goods cheese crafts flowers eggs herbs vegetables honey jams meat nuts plants poultry prepared-foods soap trees wine coffee fruits juices pet food wild"},{"type":"market","name":"San Antonio Food Bank Farmers' Market","website":"https://safoodbank.org/farmersmarket","facebook":"","twitter":"","street":"5200 Enrique M. Barrera Pkwy","city":"San Antonio","state":"TX","zip":"78227","longitude":"-98.591790","latitude":"29.418102","tags":"crafts eggs herbs vegetables honey fruits"},{"type":"market","name":"Sealy Farmers Market","website":"","facebook":"https://www.facebook.com/sealyfm/","twitter":"","street":"410 Main Street","city":"Sealy ","state":"TX","zip":"77474","longitude":"-96.159309","latitude":"29.780290","tags":"baked goods crafts eggs herbs vegetables honey jams meat poultry prepared-foods soap coffee fruits"},{"type":"market","name":"South Fork Fun Food & Brew","website":"","facebook":"https://www.facebook.com/southforkgtx/","twitter":"","street":"3309 W. Hwy 29","city":"Georgetown","state":"TX","zip":"78628","longitude":"-97.745633","latitude":"30.631014","tags":"baked goods eggs herbs vegetables honey jams meat poultry prepared-foods soap coffee fruits juices"},{"type":"market","name":"Texas Farmers' Market at Lakeline","website":"http://www.TexasFarmersMarket.org","facebook":"https://www.facebook.com/TFMLakeline","twitter":"","street":"Lakeline Mall parking lot, behind Sears & Dillard's","city":"Cedar Park","state":"TX","zip":"78613","longitude":"-97.806683","latitude":"30.469036","tags":"organic baked goods cheese crafts flowers eggs seafood herbs vegetables honey jams meat nuts plants poultry prepared-foods soap trees wine coffee beans fruits grains juices mushrooms pet food tofu wild"},{"type":"market","name":"Texas Farmers' Market at Mueller","website":"http://texasfarmersmarket.org","facebook":"https://www.facebook.com/TFMMueller","twitter":"","street":"4902 Airport Blvd","city":"Austin","state":"TX","zip":"78722","longitude":"-97.707309","latitude":"30.296761","tags":"organic baked goods cheese crafts flowers eggs seafood herbs vegetables honey jams meat nuts plants poultry prepared-foods soap trees wine coffee fruits grains juices mushrooms pet food tofu wild"},{"type":"market","name":"The Groves Marketplace","website":"https://www.lifeatthegroves.com/groves-marketplace/","facebook":"https://www.facebook.com/TheGrovesMarketplace","twitter":"","street":"11939 Madera Run Pkwy ","city":"Atascocita","state":"TX","zip":"77346","longitude":"-95.194557","latitude":"29.975941","tags":"organic baked goods flowers eggs seafood herbs vegetables honey meat nuts poultry prepared-foods soap coffee fruits juices mushrooms pet food wild"},{"type":"market","name":"Urban Harvest Farmers Market","website":"http://www.urbanharvest.org","facebook":"https://www.facebook.com/UrbanHarvestHouston/","twitter":"","street":"2752 Buffalo Speedway","city":"Houston","state":"TX","zip":"77027","longitude":"-95.431103","latitude":"29.741093","tags":"organic baked goods cheese flowers eggs seafood herbs vegetables honey jams meat nuts plants poultry prepared-foods soap trees wine coffee beans fruits juices mushrooms pet food tofu"},{"type":"market","name":"Victoria Farmers' Market","website":"http://www.tfbgc.org/farmers-market","facebook":"https://www.facebook.com/VictoriaFarmersMarket/","twitter":"","street":"2805 North Navarro","city":"Victoria","state":"TX","zip":"77901","longitude":"-97.000968","latitude":"28.821562","tags":"baked goods crafts eggs herbs vegetables honey jams meat nuts plants poultry prepared-foods soap trees wine coffee fruits grains"},{"type":"market","name":"Waco Downtown Farmers Market","website":"http://wacodowntownfarmersmarket.org","facebook":"https://www.facebook.com/WacoDowntownFarmersMarket/","twitter":"","street":"500 Washington Avenue","city":"Waco","state":"TX","zip":"76701","longitude":"-97.132941","latitude":"31.556820","tags":"organic baked goods cheese crafts flowers eggs herbs vegetables honey jams meat nuts poultry prepared-foods soap wine coffee fruits grains juices pet food"},{"type":"market","name":"Washington on the Brazos Farmers Market","website":"http://www.wheretexasbecametexas.org","facebook":"https://www.facebook.com/events/2544980005810836","twitter":"","street":"23400 Park Road 12","city":"Washington","state":"TX","zip":"77880","longitude":"-96.403458","latitude":"30.2145775","tags":"baked goods crafts flowers vegetables honey jams meat plants prepared-foods soap trees fruits"},{"type":"market","name":"Westchase District Farmers Market","website":"http://westchasedistrictfarmersmarket.com","facebook":"https://www.facebook.com/westchasedistrictfarmersmarket","twitter":"","street":"10503 Westheimer Road","city":"Houston","state":"TX","zip":"77042","longitude":"-95.560152","latitude":"29.736539","tags":"baked goods cheese eggs seafood herbs vegetables honey jams meat nuts plants poultry prepared-foods soap wine coffee fruits grains juices pet food"},{"type":"market","name":"WIC Clinic Callaghan Farmers' Market","website":"","facebook":"","twitter":"","street":"4412 Callaghan Rd","city":"San Antonio","state":"TX","zip":"78228","longitude":"-98.525142","latitude":"29.472403","tags":"vegetables fruits"},{"type":"market","name":"WIC Clinic Naco-Perrin Farmers' Market","website":"","facebook":"","twitter":"","street":"4020 Naco Perrin","city":"San Antonio","state":"TX","zip":"78217","longitude":"-98.525142","latitude":"29.472403","tags":"vegetables fruits"},{"type":"market","name":"WIC Clinic Pecan Valley Farmers' Market","website":"","facebook":"","twitter":"","street":"802 Pecan Valley","city":"San Antonio","state":"TX","zip":"78220","longitude":"-98.525142","latitude":"29.472403","tags":"vegetables fruits"},{"type":"market","name":"WIC Clinic Salinas Farmers' Market","website":"","facebook":"","twitter":"","street":"630 S General McMullen","city":"San Antonio","state":"TX","zip":"78237","longitude":"-98.525142","latitude":"29.472403","tags":"vegetables fruits"},{"type":"market","name":"Wild West Farmers Market","website":"http://WTGPA.org","facebook":"WTGPA ","twitter":"","street":"8116 19th St","city":"Lubbock","state":"TX","zip":"79407","longitude":"-101.996150","latitude":"33.578343","tags":"baked goods cheese crafts flowers eggs seafood herbs vegetables honey jams maple nuts plants poultry prepared-foods soap coffee beans fruits grains wild"},{"type":"market","name":"Winnsboro Farmers' Market","website":"http://winnsborofarmersmarket.com","facebook":"Winnsboro Farmers' Market","twitter":"","street":"Market Street","city":"Winnsboro","state":"TX","zip":"75494","longitude":"-95.289646","latitude":"32.957692","tags":"baked goods cheese crafts flowers eggs herbs vegetables honey jams meat nuts plants poultry prepared-foods soap fruits grains juices wild"},{"type":"market","name":"Wolfforth Farmers Market","website":"http://wolfforthfarmersmarket.com","facebook":"Wolfforth Farmers Market","twitter":"","street":"8924 CR 7100","city":"Wolfforth","state":"TX","zip":"79382","longitude":"-102.0163305","latitude":"33.5197029","tags":"baked goods cheese crafts flowers eggs herbs vegetables honey jams maple meat nuts plants poultry prepared-foods soap coffee fruits wild"},{"type":"market","name":"Your Neighborhood Farmers Market-CityCentre","website":"http://www.YourNeighborhoodFarmersMarket.com","facebook":"https://www.facebook.com/yourneighborhoodfarmersmarket/","twitter":"","street":"800 Towne and County BLVD.","city":"Houston","state":"TX","zip":"77024","longitude":"-95.386342","latitude":"29.780472","tags":"organic baked goods crafts flowers eggs seafood herbs vegetables honey jams maple meat nuts plants poultry prepared-foods soap trees wine coffee fruits juices pet food wild"},{"type":"market","name":"Your Neighborhood Farmers Market-LaCenterra at Cinco Ranch","website":"http://www.YourNeighborhoodFarmersMarket.com","facebook":"https://www.facebook.com/yourneighborhoodfarmersmarket/","twitter":"","street":"23501 Cinco Ranch BLVD.","city":"Katy ","state":"TX","zip":"77494","longitude":"-95.7750405","latitude":"29.7413678","tags":"organic baked goods crafts flowers eggs seafood herbs vegetables honey jams maple meat nuts plants prepared-foods soap trees wine coffee fruits grains juices pet food wild"},{"type":"market","name":"Your Neighborhood Farmers Market-Park Lakes","website":"http://www.YourNeighborhoodFarmersMarket.com","facebook":"https://www.facebook.com/yourneighborhoodfarmersmarket/","twitter":"","street":"4503 Canyon Village  Trace Dr.","city":"Humble ","state":"TX","zip":"77396","longitude":"-95.2539369","latitude":"29.9415214","tags":"organic baked goods crafts flowers eggs seafood herbs vegetables honey jams maple meat nuts plants poultry prepared-foods soap trees wine coffee fruits grains juices pet food wild"},{"type":"market","name":"Your Neighborhood Farmers Market-Summerwood","website":"http://www.YourNeighborhoodFarmersMarket.com","facebook":"https://www.facebook.com/yourneighborhoodfarmersmarket/","twitter":"","street":"14303 West Lake Houston Parkway","city":"Houston ","state":"TX","zip":"77044","longitude":"-95.1773832","latitude":"29.9341141","tags":"organic baked goods crafts flowers eggs seafood herbs vegetables honey jams maple meat nuts poultry prepared-foods soap trees wine coffee beans fruits grains juices pet food wild"},{"type":"market","name":"Your Neighborhood Farmers Market-The Groves","website":"http://www.YourNeighborhoodFarmersMarket.com","facebook":"https://www.facebook.com/yourneighborhoodfarmersmarket/","twitter":"","street":"17317 Cathedral Pines Drive","city":"Humble ","state":"TX","zip":"77346","longitude":"-95.26831","latitude":"29.988144","tags":"baked goods crafts flowers eggs seafood herbs vegetables honey jams maple meat nuts plants poultry prepared-foods soap trees wine coffee fruits juices mushrooms pet food wild"},{"type":"market","name":"Your Neighborhood Farmers Market-Towne Lake at Boardwalk","website":"http://www.YourNeighborhoodFarmersMarket.com","facebook":"https://www.facebook.com/yourneighborhoodfarmersmarket/","twitter":"","street":"9945 Barker Cypress Road","city":"Cypress","state":"TX","zip":"77443","longitude":"-95.6872981","latitude":"29.9223808","tags":"organic baked goods crafts flowers eggs seafood herbs vegetables honey jams maple meat nuts plants poultry prepared-foods soap trees wine coffee fruits juices pet food wild"}]
