[{"type":"farm","street":"10769 N 1500W Rd","city":"Manteno","state":"IL","zip":"60950","longitude":"-87.906847","latitude":"41.276258","name":"3 Winds Farm","website":"www.3windsfarm.com","facebook":"http://facebook.com/3windsfarm/","twitter":"","tags":"baked-goods cut-flowers herbs fresh-vegetables red-meat non-poultry-meat soap body-care"},{"type":"farm","street":"14510 Il Route 176","city":"Woodstock","state":"IL","zip":"60098","longitude":"-88.478504","latitude":"42.255422","name":"All Seasons Orchard","website":"www.allseasonsorchard.com","facebook":"","twitter":"","tags":"baked-goods canned preserved dairy products fresh-fruits fresh-vegetables honey juices ciders soap body-care"},{"type":"farm","street":" 5555 Main Street ","city":"Chicago ","state":"IL","zip":"60448","longitude":"-87.681844","latitude":"41.837551","name":"AMERICAN INDIAN Jone's Applebee's Farming Conglomerate","website":"","facebook":"","twitter":"","tags":"bedding plants crafts woodworking fresh-fruits tofu non-animal protein"},{"type":"farm","street":"9432 E Scott Rd","city":"Stillman Valley","state":"IL","zip":"61084","longitude":"-89.159240","latitude":"42.137549","name":"Berkowski Family Farm LLC","website":"www.bffpoultry.com","facebook":"facebook.com/bffpoultry","twitter":"twitter.com/bffpoultry","tags":"canned preserved crafts woodworking eggs herbs fresh-fruits fresh-vegetables honey poultry fowl"},{"type":"farm","street":"300 Adams street ","city":"Hurst ","state":"IL","zip":"62949","longitude":"-89.141034","latitude":"37.842598","name":"Big Muddy Hogs","website":"bigmuddyhogs.com","facebook":"facebook.com/bigmuddyhogs","twitter":"","tags":"eggs poultry fowl red-meat non-poultry-meat"},{"type":"farm","street":"8225 Rte 26 N","city":"Freeport","state":"IL","zip":"61032","longitude":"-89.634796","latitude":"42.420707","name":"Boru Farms","website":"naimhe8.wix.com/borufarm","facebook":"","twitter":"","tags":"eggs poultry fowl red-meat non-poultry-meat"},{"type":"farm","street":"18061 S. Bronk Road","city":"Plainfield","state":"IL","zip":"60586","longitude":"-88.189393","latitude":"41.554524","name":"Bronkberry Farms","website":"www.bronkberryfarms.com","facebook":"Bronkberry Farms","twitter":"","tags":"baked-goods canned preserved crafts woodworking fresh-fruits fresh-vegetables honey juices ciders"},{"type":"farm","street":"5333 U. S. highway 150","city":"Alpha","state":"IL","zip":"61413","longitude":"-90.379105","latitude":"41.229078","name":"Country Corner Farm Market & Pumpkin Patch","website":"http://www.country-corner.com","facebook":"http://wwwfacebook.com/country.corner.pumpkins","twitter":"","tags":"bedding plants canned preserved crafts woodworking dairy products eggs herbs fresh-fruits fresh-vegetables grains flour honey maple-products"},{"type":"farm","street":"2190 North 45th Road","city":"Leland","state":"IL","zip":"60531","longitude":"-88.752615","latitude":"41.587240","name":"Country Pond Gardens","website":"","facebook":"https://www.facebook.com/CountryPondGardens","twitter":"","tags":"bedding plants herbs fresh-vegetables"},{"type":"farm","street":"2112 E 100 N Rd","city":"Paxton","state":"IL","zip":"60957","longitude":"-88.057094","latitude":"40.414803","name":"Cow Creek Farm","website":"http://www.cowcreekorganicfarm.com/","facebook":"https://www.facebook.com/cowcreekorganics","twitter":"","tags":"cut-flowers dry beans eggs herbs fresh-fruits fresh-vegetables grains flour honey nuts poultry fowl red-meat non-poultry-meat soap body-care wild-harvested forest-products"},{"type":"farm","street":"10905 104th Street","city":"Coal Valley","state":"IL","zip":"61240","longitude":"-90.4677180","latitude":"41.4102820","name":"Crandall Farms","website":"www.crandallfarms.com","facebook":"www.facebook.com/crandallfarms","twitter":"www.twitter.com/crandallfarms ","tags":"eggs honey soap body-care"},{"type":"farm","street":"3902 S Duncan Rd","city":"Champaign","state":"IL","zip":"61822","longitude":"-88.2949790","latitude":"40.0639050","name":"Curtis Orchard & Pumpkin Patch","website":"www.curtisorchard.com","facebook":"www.facebook.com/curtisorchard","twitter":"www.twitter.com/curtisorchard","tags":"baked-goods canned preserved coffee tea crafts woodworking dairy products fresh-fruits fresh-vegetables honey juices ciders maple-products mushrooms nuts prepared-foods soap body-care"},{"type":"farm","street":"16678 West Aptakisic Road","city":"Prairie View-Lincolnshire","state":"IL","zip":"60069","longitude":"-87.961392","latitude":"42.182538","name":"Didier Farms","website":"www.didierfarms.com","facebook":"https://www.facebook.com/pages/Didier-Farms/120890817921408","twitter":"","tags":"baked-goods bedding plants canned preserved coffee tea crafts woodworking dairy products herbs fresh-fruits fresh-vegetables honey juices ciders nuts poultry fowl prepared-foods red-meat non-poultry-meat"},{"type":"farm","street":"4911 S Shields Ave","city":"Chicago","state":"IL","zip":"60609","longitude":"-87.634211","latitude":"41.804878","name":"Eden Place Farms","website":"www.edenplacefarms.org","facebook":"","twitter":"","tags":"baked-goods bedding plants canned preserved cut-flowers eggs fresh-fruits fresh-vegetables honey"},{"type":"farm","street":"8218 Cemetery Rd.","city":"Winnebago","state":"IL","zip":"61088","longitude":"-89.1989679","latitude":"42.3611260","name":"Edwards Apple Orchard West","website":"http://www.edwardsorchardwest.com/ ","facebook":"https://www.facebook.com/EdwardsOrchardWest","twitter":"","tags":"baked-goods canned preserved coffee tea crafts woodworking fresh-fruits fresh-vegetables honey juices ciders maple-products mushrooms soap body-care"},{"type":"farm","street":"719 East State Street","city":"Cherry Valley","state":"IL","zip":"61016","longitude":"-88.946474","latitude":"42.234871","name":"Four Sisters Organic Farm","website":"","facebook":"https://www.facebook.com/FourSistersOrganicFarm","twitter":"","tags":"cut-flowers dry beans herbs fresh-fruits fresh-vegetables wild-harvested forest-products"},{"type":"farm","street":"6091 Pope Road","city":"Sandoval","state":"IL","zip":"62882","longitude":"-89.1234437","latitude":"38.6931883","name":"Fox River Farm, LLC","website":"www.foxriverfarm.net","facebook":"facebook.com/foxriverfarm","twitter":"https://www.twitter.com/foxriverfarm","tags":""},{"type":"farm","street":"1709 2000th Avenue","city":"Beason","state":"IL","zip":"62512","longitude":"-89.2225342","latitude":"40.1649484","name":"Gail's Pumpkin Patch","website":"www.gailspumpkinpatch.com","facebook":"Gail's Pumpkin Patch","twitter":"","tags":"baked-goods canned preserved crafts woodworking honey juices ciders"},{"type":"farm","street":"6607 West Bruns Road","city":"Monee","state":"IL","zip":"60449","longitude":"-87.771681","latitude":"41.412203","name":"Gorman Farm Fresh Produce","website":"www.gormanfarmfreshproduce.com","facebook":"Gorman Farm Fresh Produce","twitter":"","tags":"cut-flowers herbs fresh-fruits fresh-vegetables honey"},{"type":"farm","street":"2719 Franklinville Rd.","city":"Woodstock","state":"IL","zip":"60098","longitude":"-88.5119320","latitude":"42.2887090","name":"Grace Farm Studios","website":"http://gracefarmstudios.com","facebook":"","twitter":"","tags":"fresh-fruits"},{"type":"farm","street":"5814 S Wood St","city":"Chicago","state":"IL","zip":"60636","longitude":"-87.6694982","latitude":"41.7880123","name":"Growing Home Inc","website":"http://growinghomeinc.org/","facebook":"https://www.facebook.com/growinghomeinc","twitter":"https://twitter.com/growinghome","tags":"herbs fresh-vegetables honey"},{"type":"farm","street":"23060 Hazel Road","city":"Sterling","state":"IL","zip":"61081","longitude":"-89.815149","latitude":"41.816303","name":"Hazel Creek Vineyard","website":"","facebook":"Hazel Creek Vineyard","twitter":"","tags":""},{"type":"farm","street":"2620 s spielman rd","city":"Pecatonica","state":"IL","zip":"61063","longitude":"-89.357212","latitude":"42.309059","name":"Hilton Farms Rooted","website":"https://hiltonrooted.com/","facebook":"Www.facebook.com/HiltonFarms5","twitter":"","tags":"eggs herbs fresh-fruits fresh-vegetables grains flour honey soap body-care wild-harvested forest-products"},{"type":"farm","street":"14861 Enterprise Road","city":"Heyworth","state":"IL","zip":"61745","longitude":"-88.901989","latitude":"40.265904","name":"Homestead Harvests LLC","website":"","facebook":"https://www.facebook.com/HomesteadHarvests","twitter":"","tags":"fresh-fruits red-meat non-poultry-meat"},{"type":"farm","street":"8354 DUSTMAN RD","city":"WORDEN","state":"IL","zip":"62097","longitude":"-89.881669","latitude":"38.960479","name":"J N' J Cattle Co.","website":"","facebook":"www.facebook.com/jnjcattle","twitter":"","tags":"red-meat non-poultry-meat"},{"type":"farm","street":"21661 Staley Rd","city":"Paris","state":"IL","zip":"61944","longitude":"-87.561520","latitude":"39.512282","name":"L&A Family Farms","website":"www.lafamilyfarms.com","facebook":"https://www.facebook.com/LAFamilyFarms","twitter":"https://twitter.com/LAFamilyFarms","tags":"canned preserved dairy products dry beans eggs herbs fresh-fruits fresh-vegetables grains flour poultry fowl red-meat non-poultry-meat soap body-care"},{"type":"farm","street":"1968 E. U.S. Route 34","city":"Leland","state":"IL","zip":"60531","longitude":"-88.7944402","latitude":"41.5901247","name":"Larson's Country Market, Inc.","website":"www.larsonscountrymarket.com","facebook":"","twitter":"","tags":"baked-goods canned preserved crafts woodworking cut-flowers eggs herbs fresh-fruits fresh-vegetables grains flour honey"},{"type":"farm","street":"9000 Cascade Road","city":"Rochester","state":"IL","zip":"62563","longitude":"-89.4917294","latitude":"39.6698487","name":"Lazy J Ranch","website":"","facebook":"https://www.facebook.com/pages/Lazy-J-Ranch-Rochester-IL/170348153012473","twitter":"","tags":""},{"type":"farm","street":"8308 Kuhn Station Road","city":"Edwardsville","state":"IL","zip":"62025","longitude":"-89.878831","latitude":"38.781031","name":"Liberty Apple Orchard","website":"www.libertyappleorchard.com","facebook":"libertyappleorchard","twitter":"","tags":"fresh-fruits"},{"type":"farm","street":"2109 S. Country Club Rd","city":"Woodstock","state":"IL","zip":"60098","longitude":"-88.3742081","latitude":"42.2981305","name":"Madoli Farms","website":"http://www.madolifarms.com/","facebook":"https://www.facebook.com/Madoli-Farms-1627836294122004/","twitter":"","tags":"cut-flowers herbs fresh-fruits fresh-vegetables"},{"type":"farm","street":"78 Oak Ridge Lane","city":"Carbondale","state":"IL","zip":"62903","longitude":"-89.312474","latitude":"37.683242","name":"McNitt Growers","website":"www.mcnittgrowers.com","facebook":"https://www.facebook.com/pages/McNitt-Growers/142603839118969","twitter":"https://twitter.com/AndyMcNitt","tags":"bedding plants"},{"type":"farm","street":"11477 Pocahontas Road","city":"Marine","state":"IL","zip":"62061","longitude":"-89.732850","latitude":"38.816176","name":"Mills Apple Farm","website":"www.millsapplefarm.com","facebook":"https://www.facebook.com/millsapplefarm","twitter":"","tags":"baked-goods canned preserved fresh-fruits honey"},{"type":"farm","street":"414 N. Mulberry","city":"Loda","state":"IL","zip":"60948","longitude":"-88.074761","latitude":"40.524431","name":"Mulberry Lane Farm","website":"www.MulberryLaneFarm.com","facebook":"","twitter":"","tags":"baked-goods canned preserved dairy products dry beans eggs fresh-fruits fresh-vegetables grains flour nuts prepared-foods red-meat non-poultry-meat soap body-care"},{"type":"farm","street":"23520 Old McHenry Road","city":"Lake Zurich","state":"IL","zip":"60047","longitude":"-88.027481","latitude":"42.204813","name":"Natural Environments Greenhouses and Nursery","website":"www.robertcboyce.com","facebook":"https://www.facebook.com/naturalenvironments/","twitter":"","tags":"bedding plants cut-flowers herbs fresh-vegetables nursery-stock wild-harvested forest-products"},{"type":"farm","street":"31095 Penrose Rd.","city":"Sterling","state":"IL","zip":"61081","longitude":"-89.645912","latitude":"41.887211","name":"Northland Farms","website":"https://www.northlandfarms.net/","facebook":"https://www.facebook.com/Northland-Farms-285324654864419/","twitter":"https://twitter.com/NorthlandFarms","tags":"red-meat non-poultry-meat"},{"type":"farm","street":"330 N. Lotus","city":"Chicago","state":"IL","zip":"60644","longitude":"-87.7621930","latitude":"41.8867310","name":"PCC Austin Farm","website":"http://www.pccwellness.org/produce-market","facebook":"","twitter":"","tags":"fresh-fruits fresh-vegetables"},{"type":"farm","street":"4914 N. Union Rd.","city":"Union","state":"IL","zip":"60180","longitude":"-88.5395406","latitude":"42.2576023","name":"Prairie Sky Orchard","website":"www.prairieskyorchard.com","facebook":"https://www.facebook.com/prairieskyorchard","twitter":"","tags":"baked-goods canned preserved fresh-fruits honey juices ciders maple-products"},{"type":"farm","street":"31330 N IL RT 21","city":"Libertyville","state":"IL","zip":"60048","longitude":"-87.963093","latitude":"42.317570","name":"Radical Root Organic Farm","website":"radicalrootfarm@gmail.com","facebook":"","twitter":"","tags":"baked-goods canned preserved dry beans eggs fresh-vegetables grains flour honey juices ciders red-meat non-poultry-meat"},{"type":"farm","street":"16566 BEST ROAD","city":"DAVIS","state":"IL","zip":"61019","longitude":"-89.3852260","latitude":"42.4921300","name":"Raines Honey Farm","website":"www.raineshoneyfarm.com","facebook":"","twitter":"","tags":"honey"},{"type":"farm","street":"9680 State Route 127 North P. O. Box 159","city":"Alto Pass","state":"IL","zip":"62905","longitude":"-89.3215991","latitude":"37.5963693","name":"Rendleman Orchards Farm Market","website":"www.rendlemanorchards.com","facebook":"RendlemanOrchards","twitter":"","tags":"baked-goods canned preserved eggs fresh-fruits fresh-vegetables honey juices ciders pet-food soap body-care"},{"type":"farm","street":"15908 Hebron Road","city":"Harvard","state":"IL","zip":"60033","longitude":"-88.5079431","latitude":"42.4795576","name":"Royal Oak Farm Orchard","website":"http://www.royaloakfarmorchard.com/","facebook":"https://www.facebook.com/royaloakfarmorchard","twitter":"https://twitter.com/RoyalOakFarmIL","tags":"baked-goods canned preserved coffee tea crafts woodworking fresh-fruits honey juices ciders maple-products nursery-stock nuts prepared-foods"},{"type":"farm","street":"1125 Inlet Road","city":"Lee Center","state":"IL","zip":"61331","longitude":"-89.276791","latitude":"41.749031","name":"Stone Home Farm","website":"www.stonehomefarm.com","facebook":"","twitter":"","tags":"eggs"},{"type":"farm","street":"2820 Yale Bridge Road","city":"South Beloit","state":"IL","zip":"61080","longitude":"-89.0950390","latitude":"42.4763920","name":"Sunrise Market Farm, Inc.","website":"http://sunrisemarketfarm.com/index.html","facebook":"https://www.facebook.com/pages/Sunrise-Market-Farm/240248702703552","twitter":"","tags":""},{"type":"farm","street":"37131 Essex Road","city":"Wilmington","state":"IL","zip":"60481","longitude":"-88.199733","latitude":"41.207105","name":"Tammen Treeberry Farm","website":"www.tammentreeberryfarm.net","facebook":"www.facebook.com/tammentreeberryfarm","twitter":"","tags":"canned preserved honey maple-products"},{"type":"farm","street":"Menge Rd","city":"Marengo","state":"IL","zip":"60152","longitude":"-88.588697","latitude":"42.335052","name":"Thornpaw Lea Farm","website":"thornpawleafarm.com","facebook":"","twitter":"","tags":""},{"type":"farm","street":"2844 US Hwy 24","city":"Sheldon","state":"IL","zip":"60966","longitude":"-87.585997","latitude":"40.776353","name":"UR Foods Farm","website":"","facebook":"@urfoodsfarm","twitter":"","tags":"baked-goods bedding plants canned preserved coffee tea crafts woodworking cut-flowers dairy products eggs herbs fresh-fruits fresh-vegetables honey red-meat non-poultry-meat"},{"type":"farm","street":"456 S. Jungle Rd. ","city":"Murphysboro","state":"IL","zip":"62966","longitude":"-89.3583627","latitude":"37.7079127","name":"Valley of Beruch","website":"","facebook":"","twitter":"","tags":"eggs"},{"type":"farm","street":"10101 Slant Road","city":"Carlyle","state":"IL","zip":"62231","longitude":"-89.418563","latitude":"38.564629","name":"Voss Pecans","website":"www.vosspecans","facebook":"","twitter":"","tags":"nuts"},{"type":"farm","street":"","city":"Mchenry","state":"IL","zip":"60050","longitude":"-88.2667534","latitude":"42.3333550","name":"Willies Honey Company","website":"www.willieshoneyco.com","facebook":"www.facebook.com/willieshoneycompany","twitter":"","tags":"honey"},{"type":"farm","street":"4679 N Flansburg Rd","city":"Lena","state":"IL","zip":"61032","longitude":"-89.7299490","latitude":"42.3677057","name":"Wishful Acres Farm","website":"","facebook":"","twitter":"","tags":""},{"type":"farm","street":"1657N 1125E ROAD","city":"MONTICELLO","state":"IL","zip":"61856","longitude":"-88.533594","latitude":"40.033451","name":"WOLFE ORCHARD","website":"","facebook":"https://www.facebook.com/pages/Wolfe-orchard/199022633503818","twitter":"","tags":""},{"type":"market","name":"3 French Hens French Country Market","website":"http://www.3frenchhensmarket.blogspot.com","facebook":"https://www.facebook.com/pages/3-French-Hens-French-Country-Market/422352511143508","twitter":"","street":"123 W. Illinois ave. ","city":"Morris","state":"IL","zip":"60450","longitude":"-88.425186","latitude":"41.356383","tags":"organic baked goods cheese crafts flowers eggs herbs vegetables honey jams maple meat plants poultry prepared-foods soap trees coffee beans fruits pet food"},{"type":"market","name":"61st Street Farmers Market","website":"https://experimentalstation.org/market","facebook":"61market","twitter":"61market","street":"6100 S. Blackstone Ave","city":"Chicago","state":"IL","zip":"60637","longitude":"-87.5905914","latitude":"41.7840790","tags":"baked goods cheese flowers eggs seafood herbs vegetables honey jams maple nuts prepared-foods soap coffee fruits juices mushrooms"},{"type":"market","name":"Andersonville Farmers Market","website":"http://www.andersonvillemarket.org","facebook":"https://www.facebook.com/andersonville?ref=bookmarks","twitter":"","street":"1500 W. Catalpa Ave.","city":"Chicago","state":"IL","zip":"60640","longitude":"-87.668602","latitude":"41.981745","tags":"organic baked goods cheese flowers eggs seafood herbs vegetables honey jams maple meat plants poultry prepared-foods soap beans fruits grains mushrooms tofu wild"},{"type":"market","name":"Antioch's Farmers Market","website":"https://www.antioch.il.gov/?s=Farmers+Market","facebook":"https://www.facebook.com/VillageOfAntioch/","twitter":"","street":"900 Skidmore Drive","city":"Antioch","state":"IL","zip":"60002","longitude":"-88.094570","latitude":"42.478128","tags":"baked goods cheese crafts flowers eggs honey jams maple plants poultry prepared-foods soap coffee beans fruits grains juices mushrooms pet food"},{"type":"market","name":"Bethalto Market In The Park","website":"http://bethaltomarketinthepark.org","facebook":"bethatofarmersmarket","twitter":"","street":"213 N Priaire St","city":"Bethalto","state":"IL","zip":"62010","longitude":"-90.053468","latitude":"38.902967","tags":"baked goods vegetables honey jams meat plants soap fruits"},{"type":"market","name":"Crystal Lake Farmers Market","website":"","facebook":"www.facebook.com/CrystalLakeFarmersMarket","twitter":"","street":"Depot Park, Woodstock & Williams Streets","city":"Crystal Lake","state":"IL","zip":"60014","longitude":"-88.317010","latitude":"42.243752","tags":"baked goods cheese flowers eggs seafood herbs vegetables honey jams maple meat plants poultry prepared-foods trees fruits grains mushrooms"},{"type":"market","name":"DeKalb Farmers' Market","website":"http://www.dekalb.org/farmersmarket","facebook":"https://www.facebook.com/dekalbfarmersmarket","twitter":"","street":"2nd and Locust Streets","city":"DeKalb","state":"IL","zip":"60115","longitude":"-88.752032","latitude":"41.931127","tags":"baked goods crafts flowers herbs vegetables honey jams nuts plants prepared-foods soap trees wine coffee fruits grains juices wild"},{"type":"market","name":"Downtown Bloomington Farmers Market","website":"http://downtownbloomington.org","facebook":"https://www.facebook.com/BLMFarmersMarket/","twitter":"DBFarmersMarket","street":"200 N. Main","city":"Bloomington","state":"IL","zip":"61701","longitude":"-88.994107","latitude":"40.480014","tags":"organic baked goods crafts flowers eggs herbs vegetables honey jams maple meat plants poultry soap coffee fruits grains"},{"type":"market","name":"Downtown Bloomington Farmers Market- Indoor","website":"http://downtownbloomington.org","facebook":"https://www.facebook.com/DBAFarmersMarket/","twitter":"","street":"101 S. Madison","city":"Bloomington","state":"IL","zip":"61701","longitude":"-88.996165","latitude":"40.478127","tags":"organic baked goods eggs herbs vegetables honey jams maple meat poultry soap fruits grains"},{"type":"market","name":"Downtown Elgin Farmers Market","website":"https://www.downtownelgin.com/farmers-market/","facebook":"https://www.facebook.com/DowntownElginFarmersMarket","twitter":"https://twitter.com/ElginFarmersMkt","street":"S. Spring Ave","city":"Elgin ","state":"IL","zip":"60120","longitude":"-88.282543","latitude":"42.036328","tags":"organic baked goods crafts flowers eggs vegetables honey jams meat poultry prepared-foods soap coffee fruits mushrooms wild"},{"type":"market","name":"Farmers Market at St. John's","website":"http://www.stjohns-episcopal.com","facebook":"Farmers Market at St. John's/Naperville","twitter":"","street":"750 Aurora Avenue","city":"Naperville","state":"IL","zip":"60540","longitude":"-88.159755","latitude":"41.767594","tags":"baked goods crafts eggs seafood herbs vegetables honey jams meat prepared-foods soap coffee fruits juices mushrooms"},{"type":"market","name":"Fox Lake Farmers Market","website":"https://www.foxlakefarmersmarket.com/","facebook":"https://www.facebook.com/events/167501670531638/","twitter":"","street":"17 E School St.","city":"Fox Lake","state":"IL","zip":"60020","longitude":"-88.178510","latitude":"42.398071","tags":"eggs seafood vegetables meat poultry fruits"},{"type":"market","name":"Glenwood Sunday Market","website":"https://www.glenwoodsundaymarket.org/","facebook":"https://www.facebook.com/GlenwoodSunday/","twitter":"https://twitter.com/glenwoodsunday","street":"","city":"Chicago","state":"IL","zip":"60626","longitude":"-87.681844","latitude":"41.837551","tags":"organic baked goods cheese flowers eggs seafood herbs vegetables honey jams maple meat plants poultry soap beans fruits grains juices mushrooms tofu"},{"type":"market","name":"Green City Market Lincoln Park","website":"http://www.greencitymarket.org","facebook":"www.facebook.com/greencitymarket","twitter":"www.twitter.com/greencitymarket","street":"1817 N. Clark St","city":"Chicago","state":"IL","zip":"60614","longitude":"-87.633865","latitude":"41.915854","tags":"organic baked goods cheese flowers eggs seafood herbs vegetables honey jams maple meat nuts poultry prepared-foods soap coffee beans fruits grains juices mushrooms pet food tofu wild"},{"type":"market","name":"Green City Market West Loop","website":"http://www.greencitymarket.org","facebook":"www.facebook.com/greencitymarket","twitter":"www.twitter.com/greencitymarket","street":"115 S. Sangamon St","city":"Chicago","state":"IL","zip":"60607","longitude":"-87.650439","latitude":"41.880039","tags":"organic baked goods cheese flowers eggs seafood herbs vegetables honey jams meat poultry prepared-foods coffee fruits juices mushrooms wild"},{"type":"market","name":"Hinsdale Farmers Market","website":"http://www.hinsdalechamber.com","facebook":"","twitter":"","street":"30 E. Chicago Ave.","city":"Hinsdale","state":"IL","zip":"60521","longitude":"-87.9286940","latitude":"41.8036543","tags":"organic baked goods cheese flowers eggs seafood herbs vegetables honey jams meat plants poultry prepared-foods soap wine coffee beans fruits"},{"type":"market","name":"Homewood Farmers Market","website":"http://www.homesweethomewood.com","facebook":"https://www.facebook.com/VillageofHomewood","twitter":"","street":"Martin Ave and Chestnut Rd","city":"Homewood","state":"IL","zip":"60430","longitude":"-87.666231","latitude":"41.562264","tags":"baked goods cheese crafts flowers herbs vegetables honey jams plants prepared-foods soap wine coffee fruits juices mushrooms"},{"type":"market","name":"Huntley Farmers Market","website":"http://www.huntley.il.us","facebook":"https://www.facebook.com/huntleyfarmersmarket","twitter":"","street":"11712 Coral Street","city":"Huntley","state":"IL","zip":"60142","longitude":"-88.424435","latitude":"42.168577","tags":"baked goods crafts flowers eggs seafood herbs vegetables honey jams maple meat plants poultry soap coffee fruits mushrooms"},{"type":"market","name":"Lake Barrington Farmer's Market","website":"http://www.LakeBarringtonFarmersMarket.com","facebook":"https://www.facebook.com/Labafama/","twitter":"","street":"28214 West Northwest Highway","city":"Lake Barrington","state":"IL","zip":"60010","longitude":"-88.183818","latitude":"42.180694","tags":"baked goods vegetables honey fruits juices pet food"},{"type":"market","name":"Lanark Farmers Market","website":"http://LanarkFarmersMarket.com","facebook":"https://www.facebook.com/LanarkFarmersMarket/","twitter":"https://twitter.com/lanark_market","street":"101 N Broad St","city":"Lanark","state":"IL","zip":"61046","longitude":"-89.832700","latitude":"42.102207","tags":"baked goods cheese crafts vegetables honey jams maple plants soap fruits"},{"type":"market","name":"Low-Line Market at Southport","website":"http://www.lowlinemarket.com","facebook":"https://www.facebook.com/LowLineMarket","twitter":"","street":"3410 N Southport Ave","city":"Chicago","state":"IL","zip":"60657","longitude":"-87.6642330","latitude":"41.9438160","tags":"baked goods cheese flowers eggs vegetables honey jams meat nuts poultry coffee fruits mushrooms wild"},{"type":"market","name":"MainStreet Libertyville Farmers Market","website":"http://www.libertyvillefarmersmarket.org","facebook":"https://www.facebook.com/Libertyville-Farmers-Market-166588080019691","twitter":"","street":"413 N Milwaukee Ave","city":"Liberytville ","state":"IL","zip":"60048","longitude":"-87.954744","latitude":"42.287242","tags":"organic baked goods cheese flowers eggs seafood herbs vegetables honey jams meat nuts plants poultry prepared-foods soap coffee fruits juices mushrooms pet food"},{"type":"market","name":"Market at the Park - Orland Park, IL","website":"http://www.orlandpark.org/market","facebook":"https://www.facebook.com/VillageofOrlandPark/","twitter":"https://twitter.com/VillageOrlandPk","street":"9705 W. 142nd Steet","city":"Orland Park","state":"IL","zip":"60462","longitude":"-87.856517","latitude":"41.631943","tags":"organic baked goods cheese crafts flowers eggs herbs vegetables honey jams meat nuts plants poultry prepared-foods soap wine coffee fruits juices mushrooms pet food"},{"type":"market","name":"Maryville Farmer’s Market","website":"http://www.maryvilleILfarmersmarket.org","facebook":"www.facebook.com/maryvilleILfarmersmarket","twitter":"","street":"1 Schiber Ct.","city":"Maryville ","state":"IL","zip":"62062","longitude":"-89.9500804","latitude":"38.7331622","tags":"baked goods flowers eggs herbs vegetables honey jams meat plants poultry soap fruits pet food"},{"type":"market","name":"Mount Carroll Farmers Market","website":"","facebook":"https://www.facebook.com/MountCarrollFarmersMarket","twitter":"","street":"116 E Market Street","city":"Mount Carroll ","state":"IL","zip":"61053","longitude":"-89.978008","latitude":"42.101295","tags":"baked goods crafts flowers eggs herbs vegetables honey jams meat nuts plants prepared-foods soap fruits"},{"type":"market","name":"Northbrook Farmers Market","website":"http://www.NorthbrookFarmersMarket.org","facebook":"https://www.facebook.com/pages/Northbrook-Farmers-Market/145228398876527","twitter":"","street":"Cherry Lane and Meadow Road","city":"Northbrook","state":"IL","zip":"60062","longitude":"-87.8286573","latitude":"42.1314024","tags":"baked goods cheese flowers eggs herbs vegetables honey jams meat plants poultry soap fruits"},{"type":"market","name":"Old Capitol Farmers Market","website":"https://www.downtownspringfield.org/old-capitol-farmers-market/","facebook":"https://www.facebook.com/OldCapitolFarmersMarket","twitter":"","street":"4th and Adams","city":"Springfield ","state":"IL","zip":"62701","longitude":"-89.650662","latitude":"39.800581","tags":"baked goods crafts flowers eggs seafood herbs vegetables honey jams meat nuts plants poultry prepared-foods soap coffee fruits grains pet food"},{"type":"market","name":"Oswego Country Market","website":"https://www.oswegolandparkdistrict.org/programs-events/special-events/oswego-country-market/","facebook":"https://www.facebook.com/OswegoCountryMarket/","twitter":"","street":"15 Main Street","city":"Oswego","state":"IL","zip":"60543","longitude":"-88.351638","latitude":"41.684726","tags":"organic baked goods cheese crafts flowers eggs seafood herbs vegetables honey jams meat plants poultry prepared-foods soap fruits juices mushrooms pet food"},{"type":"market","name":"Oswego Country Market","website":"https://www.oswegolandparkdistrict.org/programs-events/special-events/oswego-country-market/","facebook":"https://www.facebook.com/OswegoCountryMarket","twitter":"","street":"15 Main Street","city":"Oswego ","state":"IL","zip":"60543","longitude":"-88.351595","latitude":"41.684750","tags":"organic baked goods cheese crafts flowers eggs seafood herbs vegetables honey jams meat plants poultry prepared-foods soap fruits juices mushrooms pet food"},{"type":"market","name":"Palos Heights Farmer's Market","website":"http://www.palosheights.org","facebook":"palosheightsfarmersmarket","twitter":"","street":"6601 W 127th Street ","city":"Palos Heights ","state":"IL","zip":"60463","longitude":"-87.7831286","latitude":"41.6604652","tags":"baked goods crafts seafood vegetables honey jams maple meat nuts poultry prepared-foods soap coffee beans fruits grains"},{"type":"market","name":"Pontiac Farmers' Market","website":"https://downtownpontiacil.com/farmers-market-about/","facebook":"https://www.facebook.com/pontiac.farmers.market/","twitter":"","street":"","city":"Pontiac","state":"IL","zip":"61764","longitude":"-88.629562","latitude":"40.880177","tags":"baked goods crafts flowers herbs vegetables honey soap fruits"},{"type":"market","name":"Quincy Farmer's Market","website":"https://www.thedistrictquincy.com/farmers-market/","facebook":"https://www.thedistrictquincy.com/farmers-market/","twitter":"","street":"128 N. 5th St.","city":"QUINCY","state":"IL","zip":"62301","longitude":"-91.409173","latitude":"39.932754","tags":"organic baked goods cheese crafts flowers eggs herbs vegetables honey jams meat plants prepared-foods soap fruits pet food"},{"type":"market","name":"Riverside Farmers' Market","website":"http://justeatlocal.wordpress.com/","facebook":"https://www.facebook.com/Riverside.Farmers.Mkt","twitter":"","street":"10 Pine Ave.","city":"Riverside","state":"IL","zip":"60546","longitude":"-87.8201027","latitude":"41.8277856","tags":"baked goods flowers eggs seafood herbs vegetables honey jams maple meat plants poultry prepared-foods soap trees coffee fruits"},{"type":"market","name":"Rockford Midtown Market","website":"http://rockfordmidtownmarket.com","facebook":"https://www.facebook.com/RockfordMidtownMarket","twitter":"https://twitter.com/marketmidtown","street":"503 Seventh Street","city":"Rockford","state":"IL","zip":"61104","longitude":"-89.080980","latitude":"42.262526","tags":"baked goods crafts flowers eggs herbs vegetables honey jams nuts plants prepared-foods soap coffee fruits grains pet food wild"},{"type":"market","name":"Rolling Meadows City Markets","website":"http://www.cityrm.org","facebook":"cityofrollingmeadows","twitter":"@CityofRM1","street":"2720 Kirchoff Road","city":"Rolling Meadows","state":"IL","zip":"60008","longitude":"-88.016174","latitude":"42.078232","tags":"baked goods crafts flowers seafood herbs vegetables honey jams meat nuts plants prepared-foods soap coffee fruits mushrooms pet food"},{"type":"market","name":"The ALMH Market","website":"http://www.thealmhmarket.org","facebook":"facebook.com/thealmhmarket","twitter":"","street":"1408 Short Eleventh Street","city":"Lincoln","state":"IL","zip":"62656","longitude":"-89.385160","latitude":"40.154182","tags":"organic baked goods cheese flowers eggs herbs vegetables honey jams meat poultry prepared-foods soap fruits wild"},{"type":"market","name":"The Territory Farmers' Market","website":"","facebook":"www.facebook.com/TheTerritoryFarmersMarket","twitter":"","street":"2000 Territory Drive","city":"Galena","state":"IL","zip":"61036","longitude":"-90.313530","latitude":"42.404443","tags":"baked goods crafts eggs herbs vegetables honey jams fruits mushrooms"},{"type":"market","name":"Twin City Farmers Market","website":"http://www.twincityfarmersmarket.com","facebook":"https://www.facebook.com/twincityfarmersmarket","twitter":"@twincitymarket","street":"106 Avenue A","city":"Sterling IL","state":"IL","zip":"61081","longitude":"-89.697172","latitude":"41.787255","tags":"baked goods cheese crafts flowers eggs herbs vegetables honey jams maple meat plants poultry prepared-foods soap coffee fruits mushrooms pet food"},{"type":"market","name":"Vernon Hills Park District Farmers Market","website":"http://vhpdfarmersmarket.org","facebook":"","twitter":"","street":"Lakeview Parkway and Hawthorn Parkway","city":"Vernon Hills","state":"IL","zip":"60061","longitude":"-87.962265","latitude":"42.241619","tags":"baked goods seafood herbs vegetables honey jams meat nuts poultry prepared-foods soap coffee fruits"},{"type":"market","name":"Village of Lemont Farmers Market, \"Tuesday's on Talcott\"","website":"http://www.lemont.il.us/FarmersMarket","facebook":"http://www.facebook.com/VillageofLemont","twitter":"","street":"Stephen Street & Talcott Avenue (behind LaDolce Vita)","city":"Lemont","state":"IL","zip":"60439","longitude":"-87.998186","latitude":"41.675519","tags":"baked goods crafts eggs seafood vegetables honey jams meat poultry prepared-foods soap coffee fruits mushrooms"},{"type":"market","name":"Village of Skokie Farmers' Market","website":"http://www.skokie.org/FarmersMarket.cfm","facebook":"","twitter":"","street":"5127 Oakton Street","city":"Skokie","state":"IL","zip":"60077","longitude":"-87.756755","latitude":"42.026029","tags":"baked goods cheese flowers eggs seafood herbs vegetables honey jams maple meat plants poultry prepared-foods trees coffee fruits grains mushrooms wild"},{"type":"market","name":"Vine Street Market at O'Fallon Station","website":"https://ofallonstation.com/vine-street-market/","facebook":"@vinestreetmarketofallon","twitter":"","street":"212 E 1st Street","city":"O'Fallon","state":"IL","zip":"62269","longitude":"-89.908925","latitude":"38.591615","tags":"baked goods cheese crafts flowers eggs herbs vegetables honey jams meat plants poultry prepared-foods soap trees wine coffee fruits grains juices pet food"},{"type":"market","name":"West Town Health & Farmers Market","website":"http://www.presencehealth.org/west-town-health-market","facebook":"https://www.facebook.com/PresenceHealth/","twitter":"","street":"2233 W Division St","city":"Chicago","state":"IL","zip":"60622","longitude":"-87.684396","latitude":"41.902872","tags":"organic baked goods cheese flowers eggs seafood herbs vegetables honey poultry soap coffee fruits mushrooms"},{"type":"market","name":"Woodstock Farmers Market - Winter","website":"http://www.woodstockfarmersmarket.org","facebook":"https://www.facebook.com/woodstockfarmersmarket","twitter":"@woodstockfarmmk","street":"11900 Country Club Rd.","city":"Woodstock","state":"IL","zip":"60098","longitude":"-88.435654","latitude":"42.310266","tags":"organic baked goods cheese crafts eggs herbs vegetables honey jams meat poultry soap beans fruits juices mushrooms pet food"},{"type":"market","name":"Woodstock Farmers Market-Saturday Summer","website":"http://www.woodstockfarmersmarket.org","facebook":"https://www.facebook.com/woodstockfarmersmarket","twitter":"@woodstockfarmmk","street":"112 S. Benton St.","city":"Woodstock","state":"IL","zip":"60098","longitude":"-88.435654","latitude":"42.310266","tags":"organic baked goods cheese crafts flowers eggs herbs vegetables honey jams meat nuts plants poultry prepared-foods soap trees beans fruits grains juices mushrooms pet food"},{"type":"market","name":"Woodstock Farmers Market-Tuesday Summer","website":"http://www.woodstockfarmersmarket.org","facebook":"https://www.facebook.com/woodstockfarmersmarket","twitter":"@woodstockfarmmk","street":"112 S. Benton St.","city":"Woodstock","state":"IL","zip":"60098","longitude":"-88.435654","latitude":"42.310266","tags":"organic baked goods cheese crafts flowers eggs herbs vegetables honey jams meat nuts plants poultry prepared-foods soap trees beans fruits grains juices mushrooms pet food"}]
