[{"type":"farm","street":"5143 37th AVE NE","city":"Esmond","state":"ND","zip":"58332","longitude":"-99.829980","latitude":"48.157882","name":"gardendwellers FARM","website":"www.gardendwellersfarm.com","facebook":"https://www.facebook.com/gardendwellersfarm/","twitter":"","tags":"herbs fresh-fruits"},{"type":"market","name":"BisMarket","website":"http://www.bismarket.com","facebook":"www.facebook.com/bismarketnd","twitter":"","street":"","city":"Bismarck","state":"ND","zip":"58501","longitude":"-100.796471","latitude":"46.803081","tags":"baked goods crafts flowers eggs herbs vegetables honey jams meat plants prepared-foods soap wine coffee fruits pet food"},{"type":"market","name":"Bottineau Farmers Market","website":"","facebook":"facebook.com/Bottineau-Farmers-Market-1665424737011341/","twitter":"","street":"6th Street and Main Street","city":"Bottineau","state":"ND","zip":"58318","longitude":"-100.4459433","latitude":"48.8262788","tags":"baked goods crafts flowers eggs herbs vegetables honey jams meat nuts plants poultry prepared-foods soap trees beans fruits grains wild"},{"type":"market","name":"North Prairie Farmers Market - Minot","website":"http://www.northprairiefarmersmarket.com","facebook":"","twitter":"","street":"Corner of 3rd Ave SW and Broadway","city":"Minot","state":"ND","zip":"58701","longitude":"-101.295598","latitude":"48.233564","tags":"organic baked goods crafts flowers eggs herbs vegetables honey jams plants soap fruits grains"},{"type":"market","name":"Watford Market","website":"","facebook":"https://www.facebook.com/watfordmarket/","twitter":"","street":"501 7th St SE","city":"Watford City","state":"ND","zip":"58854","longitude":"-103.271392","latitude":"47.797315","tags":"baked goods crafts flowers eggs vegetables honey jams prepared-foods fruits"}]
