[{"type":"farm","street":"","city":"New Harmony exit ","state":"UT","zip":"","longitude":"-113.50494","latitude":"37.2803473","name":"little america organic orchard","website":"littleamericaorganicorchard.wordpress.com","facebook":"","twitter":"","tags":"fresh-fruits"},{"type":"farm","street":"1285 East 4500 North","city":"Hyde Park","state":"UT","zip":"84318","longitude":"-111.802982","latitude":"41.815248","name":"Mt. Naomi Farms","website":"mtnaomifarms.com","facebook":"https://www.facebook.com/mtnaomi","twitter":"","tags":"fresh-fruits"},{"type":"farm","street":"325 E 1600 S","city":"Mapleton","state":"UT","zip":"84664","longitude":"-111.575089","latitude":"40.116217","name":"Perry's Berries","website":"","facebook":"www.facebook.com/perrysberries","twitter":"","tags":""},{"type":"farm","street":"8722 South 6200 West","city":"Payson","state":"UT","zip":"84651","longitude":"-111.800724","latitude":"40.072157","name":"Phelps Fruit & Berry Farm","website":"","facebook":"https://www.facebook.com/PhelpsFruit?ref=hl","twitter":"","tags":"canned preserved fresh-fruits fresh-vegetables nuts"},{"type":"farm","street":"1847 South 2400 West","city":"Logan","state":"UT","zip":"84321","longitude":"-111.8913043","latitude":"41.6989671","name":"Phoenix Tears Nursery","website":"www.phoenixtearsnursery.com","facebook":"","twitter":"","tags":"nursery-stock"},{"type":"market","name":"Brigham City Farmers Market","website":"http://visitbrighamcity.com/farmersmarket","facebook":"@historicbrigham","twitter":"@historicbrigham","street":"20 N Main Street","city":"Brigham City","state":"UT","zip":"84302","longitude":"-112.015057","latitude":"41.510773","tags":"baked goods cheese crafts eggs herbs vegetables honey jams meat nuts prepared-foods soap trees coffee beans fruits"},{"type":"market","name":"Daybreak Farmers Market","website":"http://www.daybreakfarmersmarket.com","facebook":"http://www.facebook.com/daybreakfarmersmarket","twitter":"","street":"Kestrel Rise Rd. and Daybreak Pkwy/W 11400 S","city":"South Jordan","state":"UT","zip":"84009","longitude":"-112.002561","latitude":"40.547045","tags":"baked goods crafts flowers eggs seafood herbs vegetables honey jams meat plants poultry prepared-foods soap coffee fruits pet food"},{"type":"market","name":"Heber Market on Main","website":"http://www.heberut.gov","facebook":"","twitter":"","street":"250 South Main","city":"Heber City","state":"UT","zip":"84032","longitude":"-111.167763","latitude":"40.329639","tags":"baked goods crafts flowers vegetables honey jams maple plants fruits"},{"type":"market","name":"Herriman Farmers Market","website":"","facebook":"Good4Life Markets","twitter":"","street":"5355 W. Herriman Main St.","city":"Herriman","state":"UT","zip":"84096","longitude":"-112.015037","latitude":"40.515537","tags":"organic baked goods cheese crafts flowers eggs herbs vegetables honey jams plants prepared-foods soap coffee fruits juices tofu wild"},{"type":"market","name":"Liberty Park Market","website":"","facebook":"https://www.facebook.com/libertyparkmarket/?ref=settings","twitter":"https://twitter.com/LibertyParkMrkt","street":"Liberty Park, 600 East 900 South","city":"Salt Lake City","state":"UT","zip":"84105","longitude":"-111.872426","latitude":"40.744796","tags":"baked goods cheese crafts flowers eggs vegetables honey jams meat poultry prepared-foods soap coffee fruits pet food wild"},{"type":"market","name":"Price Farmers Market","website":"","facebook":"https://www.facebook.com/Price-Farmers-Market-217357654964801/","twitter":"","street":"100 N 100 E","city":"Price","state":"UT","zip":"84501","longitude":"-110.8088043","latitude":"39.6010798","tags":"baked goods crafts flowers eggs herbs vegetables honey jams plants soap fruits"},{"type":"market","name":"Wayne County Farmers Market","website":"","facebook":"Wayne County Farmers Market","twitter":"","street":"Center & Main","city":"Torrey ","state":"UT","zip":"84775","longitude":"-111.420890","latitude":"38.299219","tags":"baked goods cheese crafts flowers eggs herbs vegetables honey jams meat plants prepared-foods soap trees coffee beans fruits juices pet food"}]
