[{"type":"farm","street":"44578 280th Street","city":"Marion","state":"SD","zip":"57043","longitude":"-97.2841075","latitude":"43.3287083","name":"Berrybrook Organics & U-Pick","website":"www.berrybrookorganics.com","facebook":"https://www.facebook.com/pages/Berrybrook-Organics/576031785742694","twitter":"","tags":"eggs"},{"type":"farm","street":"41885 130th St.","city":"Pierpont","state":"SD","zip":"57468","longitude":"-97.840340","latitude":"45.500131","name":"Better Roots Farm, LLC","website":"www.betterrootsfarm.com","facebook":"https://www.facebook.com/betterrootsfarm/","twitter":"","tags":"bedding plants fresh-fruits fresh-vegetables"},{"type":"farm","street":"8700 E Sunset Circle","city":"Brandon","state":"SD","zip":"57005","longitude":"-96.618427","latitude":"43.578181","name":"Fruit of the Coop","website":"www.fruitofthecoop.com","facebook":"www.facebook.com/fruitofthecoop","twitter":"","tags":"eggs"},{"type":"farm","street":"8700 E Sunset Circle","city":"Brandon","state":"SD","zip":"57005","longitude":"-96.618427","latitude":"43.578181","name":"Fruit of the Coop","website":"www.fruitofthecoop.com","facebook":"www.facebook.com/fruitofthecoop","twitter":"","tags":"eggs"},{"type":"farm","street":"20044 464th Ave.","city":"Bruce","state":"SD","zip":"57220","longitude":"-96.889634","latitude":"44.437716","name":"Haroldson Farms","website":"https://hardsonfarms.com/","facebook":"https://www.facebook.com/HaroldsonFarms/","twitter":"","tags":"baked-goods herbs fresh-fruits fresh-vegetables"},{"type":"farm","street":"41247 178th St","city":"Raymond","state":"SD","zip":"57258","longitude":"-97.964041","latitude":"44.828767","name":"Purity Seeds","website":"www.purityseedsUSA.com","facebook":"https://www.facebook.com/purityseeds","twitter":"","tags":"grains flour"},{"type":"farm","street":"8 Miles SW","city":"Gettysburg","state":"SD","zip":"57442","longitude":"-100.021000","latitude":"44.940829","name":"Springerridge","website":"www.facebook.com/Springerridge%20Barnyard%20Products","facebook":"https://www.facebook.com/pages/Springerridge-Barnyard-Products/139944099427072","twitter":"","tags":"baked-goods bedding plants canned preserved herbs fresh-vegetables honey pet-food"},{"type":"farm","street":"12871 467th Ave","city":"Browns  Valley","state":"SD","zip":"56219","longitude":"-96.861851","latitude":"45.518557","name":"Sunset Gardens, LLC","website":"","facebook":"","twitter":"","tags":"baked-goods canned preserved cut-flowers herbs fresh-fruits fresh-vegetables soap body-care wild-harvested forest-products"},{"type":"farm","street":"3691 East Main Street","city":"Vermillion","state":"SD","zip":"57069","longitude":"-96.877792","latitude":"42.779161","name":"Ufford Hills Pumpkin Patch and Corn Maze","website":"uffordhills.net","facebook":"Uffordhills","twitter":"","tags":"baked-goods coffee tea crafts woodworking dairy products eggs fresh-vegetables grains flour prepared-foods red-meat non-poultry-meat soap body-care"},{"type":"market","name":"Falls Park Farmers Market ","website":"http://www.fallsparkfarmersmarket.com","facebook":"www.facebook.com/FallsParkFarmersMarket","twitter":"","street":"E Falls Park Drive and N 2nd Ave","city":"Sioux Falls ","state":"SD","zip":"57101","longitude":"-96.723203","latitude":"43.560777","tags":"organic baked goods cheese flowers eggs herbs vegetables honey jams meat plants poultry prepared-foods soap trees coffee fruits mushrooms pet food"},{"type":"market","name":"Hartford Farmers Market","website":"http://hartfordfarmersmarket.weebly.com/","facebook":"https://www.facebook.com/HartfordSDFarmersMarket/","twitter":"","street":"1001 N Oaks Ave","city":"Hartford","state":"SD","zip":"57033","longitude":"-96.947438","latitude":"43.632679","tags":"crafts flowers herbs vegetables honey soap coffee fruits"},{"type":"market","name":"Hot Springs Farmers Market","website":"","facebook":"www.facebook.com/soakinlocalfood","twitter":"","street":"c/o Rajni Lerman","city":"Hot Springs","state":"SD","zip":"57747","longitude":"-103.479082","latitude":"43.432276","tags":"baked goods crafts flowers eggs herbs vegetables honey jams prepared-foods fruits"},{"type":"market","name":"Medicine Root/Oyate Teca Farmers Market","website":"http://www.oyatetecaproject.org","facebook":"Medicine Root Farmers Market","twitter":"","street":"1000 Youth Center Drive","city":"Kyle ","state":"SD","zip":"57752","longitude":"-102.176734","latitude":"43.424109","tags":"baked goods vegetables jams plants"},{"type":"market","name":"Vermillion Area Farmers Market Summer Saturday Markets","website":"http://www.vermillionfarmersmarket.org","facebook":"https://www.facebook.com/groups/VAFarmersMarket/","twitter":"https://twitter.com/VAFarmMkt","street":"Main and Market Streets","city":"Vermillion","state":"SD","zip":"57069","longitude":"-96.934150","latitude":"42.779219","tags":"organic baked goods cheese crafts flowers eggs herbs vegetables honey jams meat plants poultry prepared-foods soap beans fruits grains"},{"type":"market","name":"Vermillion Area Farmers Market Winter Markets","website":"http://www.vermillionfarmersmarket.org","facebook":"https://www.facebook.com/groups/VAFarmersMarket/","twitter":"https://twitter.com/VAFarmMkt","street":"515 High Street","city":"Vermillion","state":"SD","zip":"57069","longitude":"-96.9346099","latitude":"42.7851033","tags":"organic baked goods cheese crafts flowers eggs herbs vegetables honey jams meat plants poultry prepared-foods soap coffee beans fruits grains"}]
