[{"type":"farm","street":"3300 Frazer Rd","city":"Newark ","state":"DE","zip":"19702","longitude":"-75.7644560","latitude":"39.5560199","name":"Cook Family Farm's - CoolRockStock","website":"coolrockstock.com","facebook":"Cook Family Farm","twitter":"","tags":"red-meat non-poultry-meat"},{"type":"farm","street":"1431 Foulk Rd","city":"Wilmington","state":"DE","zip":"19803","longitude":"-75.521104","latitude":"39.801994","name":"Highland Orchards Farm Market","website":"www.highlandorchardsfarmmarket.com","facebook":"https://www.facebook.com/highlandorchards","twitter":"https://twitter.com/highlandcsa","tags":"baked-goods bedding plants canned preserved cut-flowers dairy products eggs herbs fresh-fruits fresh-vegetables honey maple-products mushrooms nuts poultry fowl red-meat non-poultry-meat"},{"type":"farm","street":"Hearns Pond Rd","city":"Seaford","state":"DE","zip":"19973","longitude":"-75.6144550","latitude":"38.6834350","name":"Maebrook Produce","website":"www.maebrookproduce.com","facebook":"https://www.facebook.com/MaebrookProduce","twitter":"","tags":"herbs fresh-vegetables"},{"type":"farm","street":"1218 B. Street","city":"Wilmington","state":"DE","zip":"19801","longitude":"-75.5428680","latitude":"39.7284250","name":"Southbridge Youth Farm Stand","website":"https://swpn.org/southbridgecommunitygarden/","facebook":"https://www.facebook.com/YouthFarmStandandPopupMarket/","twitter":"","tags":"baked-goods bedding plants cut-flowers fresh-fruits fresh-vegetables prepared-foods soap body-care wild-harvested forest-products"},{"type":"market","name":"BETHANY BEACH FARMERS' MARKET, INC.","website":"https://bethanybeachfarmersmarket.com/","facebook":"https://www.facebook.com/bethanybeachfarmersmarket","twitter":"@BBFarmersMarket","street":"601 castle court","city":"Bethany Beach","state":"DE","zip":"19930","longitude":"-75.056515","latitude":"38.538397","tags":"organic baked goods flowers vegetables honey soap fruits juices mushrooms"},{"type":"market","name":"Capital City Farmers Market","website":"http://www.downtowndoverpartnership.com/","facebook":"https://www.facebook.com/capitalcityfarmersmarket/","twitter":"","street":"126 West Loockerman Street (Loockerman Way Plaza)","city":"Dover","state":"DE","zip":"19904","longitude":"-75.5262294","latitude":"39.1576541","tags":"baked goods crafts flowers eggs herbs vegetables jams poultry soap fruits"},{"type":"market","name":"Historic Lewes Farmers Market","website":"http://www.historiclewesfarmersmarket.org","facebook":"https://www.facebook.com/historiclewesfarmersmarket/","twitter":"","street":"36707 Crooked Hammock Way","city":"Lewes","state":"DE","zip":"19958","longitude":"-75.150657","latitude":"38.746394","tags":"baked goods flowers eggs herbs vegetables honey plants poultry prepared-foods soap fruits pet food"},{"type":"market","name":"Historic Lewes Farmers Market","website":"http://www.historiclewesfarmersmarket.org","facebook":"https://www.facebook.com/historiclewesfarmersmarket/","twitter":"","street":"Savannah Rd. and Sussex Ave.","city":"Lewes","state":"DE","zip":"19958","longitude":"-75.147417","latitude":"38.767703","tags":"organic baked goods cheese flowers eggs herbs vegetables honey jams plants poultry prepared-foods soap trees coffee beans fruits juices mushrooms pet food"},{"type":"market","name":"Historic Lewes Farmers Market","website":"","facebook":"https://www.facebook.com/historiclewesfarmersmarket","twitter":"","street":"Dupont and Johnson Avenues","city":"Lewes","state":"DE","zip":"19958","longitude":"-75.147503","latitude":"38.772404","tags":"organic baked goods cheese flowers eggs seafood herbs vegetables honey jams meat plants poultry soap coffee fruits mushrooms"},{"type":"market","name":"Milton Farmers' Market","website":"http://www.miltondefarmersmarket.org/","facebook":"https://www.facebook.com/Miltonfarmkt/","twitter":"","street":"6 Village Center Boulevard","city":"Milton","state":"DE","zip":"19968","longitude":"-75.310511","latitude":"38.769132","tags":"baked goods cheese flowers eggs seafood herbs vegetables honey jams meat prepared-foods soap wine fruits pet food"},{"type":"market","name":"Riverwalk Farmers Market","website":"http://downtownmilford.org/farmersmarket","facebook":"Facebook@riverwalkfarmersmarket","twitter":"","street":"5 S. Walnut Street ","city":"Milford","state":"DE","zip":"19963","longitude":"-75.428080","latitude":"38.913062","tags":"baked goods crafts flowers eggs herbs vegetables honey jams meat plants prepared-foods soap trees fruits juices mushrooms"}]
