[{"type":"farm","street":"310 Kunkle Rd","city":"Kittanning borough","state":"PA","zip":"16201","longitude":"-79.379299","latitude":"40.774383","name":"Acorn Hollow Farm","website":"www.acornhollowfarm.com","facebook":"Acorn Hollow Farm","twitter":"","tags":"cut-flowers fresh-fruits fresh-vegetables"},{"type":"farm","street":"5095 Thoms Run Road","city":"Oakdale","state":"PA","zip":"15071","longitude":"-80.1330934","latitude":"40.3739713","name":"Beccari's Farm Market","website":"beccaris.com","facebook":"www.facebook/beccaris","twitter":"","tags":"baked-goods canned preserved cut-flowers dairy products eggs fresh-fruits fresh-vegetables honey juices ciders"},{"type":"farm","street":"3299 Wrighter Lake Rd","city":"Thompson","state":"PA","zip":"18465","longitude":"-75.428190","latitude":"41.851223","name":"Bialecki Farms","website":"","facebook":"https://www.facebook.com/homesteadinghobnobbery","twitter":"","tags":"eggs herbs fresh-fruits fresh-vegetables wild-harvested forest-products"},{"type":"farm","street":"2287 Durham Road","city":"Buckingham","state":"PA","zip":"18912","longitude":"-75.052641","latitude":"40.318708","name":"Blue Moon Acres: Certified Organic Farm and Market ","website":"http://bluemoonacres.com/contact-us/","facebook":"https://www.facebook.com/BlueMoonAcresFarm","twitter":"https://twitter.com/bmacres","tags":"eggs herbs fresh-fruits fresh-vegetables mushrooms wild-harvested forest-products"},{"type":"farm","street":"3669 Coventryville Road","city":"East Nantmeal","state":"PA","zip":"19465","longitude":"-75.692628","latitude":"40.160960","name":"Blue Slate Farm","website":"","facebook":"https://www.facebook.com/blueslatefarm","twitter":"@blueslatefarm","tags":"bedding plants eggs herbs fresh-fruits fresh-vegetables poultry fowl wild-harvested forest-products"},{"type":"farm","street":"768 Glen Eden Rd.","city":"Zelienople","state":"PA","zip":"16063","longitude":"-80.1535360","latitude":"40.7249880","name":"Brenckle's Organic Farm & Greenhouse","website":"http://www.brencklesfarm.com/","facebook":"https://www.facebook.com/BrencklesOrganicFarm","twitter":"","tags":"bedding plants canned preserved dairy products eggs herbs fresh-fruits fresh-vegetables honey maple-products"},{"type":"farm","street":"111 Plank Road","city":"Westfield","state":"PA","zip":"16950","longitude":"-77.594692","latitude":"41.955620","name":"Brookfield Maple Products","website":"www.brookfieldmapleproducts.com","facebook":"https://www.facebook.com/pages/Brookfield-Maple-Products/322566231113004","twitter":"","tags":"maple-products"},{"type":"farm","street":"2345 Taneytown Road","city":"Gettysburg","state":"PA","zip":"17325","longitude":"-77.230185","latitude":"39.754261","name":"Chapel Ford Farm","website":"","facebook":"https://www.facebook.com/chapelfordfarms","twitter":"","tags":"eggs poultry fowl red-meat non-poultry-meat"},{"type":"farm","street":"","city":"2771 Paradise Rd","state":"PA","zip":"15841","longitude":"-78.831249","latitude":"41.059349","name":"Cherish Creamery LLC","website":"cherishcreamery.com","facebook":"cherish creamery","twitter":"","tags":"dairy products eggs"},{"type":"farm","street":"1436 Mount Joy Rd.","city":"Manheim","state":"PA","zip":"17545","longitude":"-76.427558","latitude":"40.138632","name":"Creekside Farm Market LLC","website":"http://www.thecreeksidemarket.com","facebook":"https://www.facebook.com/CreeksideFarmMarket","twitter":"","tags":"cut-flowers fresh-fruits fresh-vegetables"},{"type":"farm","street":"214 Little Beaver Rd","city":"Enon Valley","state":"PA","zip":"16120","longitude":"-80.490268","latitude":"40.844265","name":"Enon Valley Garlic","website":"www.EnonValleyGarlic.com","facebook":"https://www.facebook.com/enonvallleygarlic","twitter":"","tags":"eggs fresh-vegetables"},{"type":"farm","street":"Snoopy Barn At 515 Knauss Rd.","city":"Nazareth","state":"PA","zip":"18064","longitude":"-75.350858","latitude":"40.760277","name":"Fairman Farm","website":"www.fairmanfarm.com","facebook":"","twitter":"","tags":"bedding plants herbs fresh-vegetables"},{"type":"farm","street":"5537 Wool Mill Road","city":"Glenville","state":"PA","zip":"17329","longitude":"-76.8413680","latitude":"39.7516830","name":"Firefly Farm PA","website":"","facebook":"https://www.facebook.com/pages/Firefly-Farm-PA/117241838301654","twitter":"","tags":"eggs"},{"type":"farm","street":"110 Ducktown Road","city":"York","state":"PA","zip":"17347","longitude":"-76.580711","latitude":"40.008422","name":"Flinchbaughs Orchard and Farm Market","website":"http://www.flinchbaughsorchard.com","facebook":"https://www.facebook.com/FlinchbaughsOrchard","twitter":"https://twitter.com/FlinchsOrchard","tags":"baked-goods bedding plants canned preserved coffee tea crafts woodworking cut-flowers dairy products eggs herbs fresh-fruits fresh-vegetables grains flour honey juices ciders maple-products nuts poultry fowl prepared-foods red-meat non-poultry-meat"},{"type":"farm","street":"1922 Flint Hill Road ","city":"Coopersburg","state":"PA","zip":"18036","longitude":"-75.349214","latitude":"40.530732","name":"Flint Hill Farm Educational Center, Inc","website":"www.flinthillfarm.org","facebook":"FlintHillFarmEducationalCenter, Inc.","twitter":"","tags":"canned preserved dairy products eggs herbs honey"},{"type":"farm","street":"3669 Coventryville Road","city":"Pottstown","state":"PA","zip":"19465","longitude":"-75.692445","latitude":"40.161075","name":"Four Sisters Farm","website":"http://www.foursisters.farm","facebook":"https://www.facebook.com/FourSistersFarmPA/","twitter":"https://twitter.com/4SistersFarm","tags":"bedding plants canned preserved eggs fresh-fruits fresh-vegetables poultry fowl wild-harvested forest-products"},{"type":"farm","street":"1927 Cumberland Road","city":"Bedford","state":"PA","zip":"15522","longitude":"-78.5509454","latitude":"39.9776974","name":"Foxtail Farmstead LLC","website":"www.foxtailfarmstead.com","facebook":"","twitter":"","tags":"poultry fowl red-meat non-poultry-meat"},{"type":"farm","street":"3147 Griffis Hill Road","city":"Montrose","state":"PA","zip":"18801","longitude":"-75.995723","latitude":"41.841607","name":"Foxy Farms","website":"http://www.localharvest.org/foxy-farms-M38482","facebook":"","twitter":"","tags":"cut-flowers eggs fresh-fruits fresh-vegetables grains flour maple-products"},{"type":"farm","street":"846 Fleetwood Lyons Rd","city":"Fleetwood","state":"PA","zip":"19522","longitude":"-75.7970043","latitude":"40.4716450","name":"Gauker Farms","website":"www.gaukerfarms.com","facebook":"www.facebook.com/gaukerfarms","twitter":"","tags":"red-meat non-poultry-meat"},{"type":"farm","street":"1395 Clear Run Road","city":"DuBois","state":"PA","zip":"15801","longitude":"-78.7423890","latitude":"41.1530840","name":"Gilbert Hill Farm","website":"","facebook":"","twitter":"","tags":"baked-goods canned preserved crafts woodworking dairy products eggs herbs fresh-vegetables pet-food poultry fowl"},{"type":"farm","street":"13021 Flatts Rd.","city":"Waterford","state":"PA","zip":"16441","longitude":"-79.9719584","latitude":"41.9219327","name":"Glenn Troyer Farms","website":"www.glenntroyerfarms.com","facebook":"troyersstrawberryacres","twitter":"","tags":""},{"type":"farm","street":"747 Buttermilk Hollow Rd","city":"Claysburg","state":"PA","zip":"16625","longitude":"-78.488254","latitude":"40.303651","name":"Green\"er\" Acres Farm","website":"","facebook":"https://www.facebook.com/greeneracresfarm","twitter":"","tags":"eggs herbs fresh-fruits fresh-vegetables poultry fowl red-meat non-poultry-meat wild-harvested forest-products"},{"type":"farm","street":"11 Hardler Farm Rd","city":"Honesdale","state":"PA","zip":"18431","longitude":"-75.259646","latitude":"41.697583","name":"Hardler Farms","website":"","facebook":"Hardlerfarms@facebook","twitter":"","tags":"baked-goods canned preserved dairy products eggs fresh-vegetables honey prepared-foods red-meat non-poultry-meat soap body-care"},{"type":"farm","street":"962 Martin Road","city":"Needmore","state":"PA","zip":"17238","longitude":"-78.127732","latitude":"39.843541","name":"Hartman's Oz Farm","website":"","facebook":"","twitter":"","tags":"eggs fresh-vegetables mushrooms red-meat non-poultry-meat"},{"type":"farm","street":"75 Creamery Road","city":"Pottstown","state":"PA","zip":"19465","longitude":"-75.6073240","latitude":"40.1896470","name":"Hill Creek Farm","website":"http://www.hillcreekfarmpa.com","facebook":"https://www.facebook.com/pages/Hill-Creek-Farm/145650775611864?ref=bookmarks","twitter":"","tags":"cut-flowers herbs fresh-fruits fresh-vegetables mushrooms wild-harvested forest-products"},{"type":"farm","street":"217 Rock Glen Rd.","city":"Sugarloaf","state":"PA","zip":"18249","longitude":"-76.084909","latitude":"40.986051","name":"Hilliards Fruit Farm","website":"","facebook":"","twitter":"","tags":"fresh-fruits fresh-vegetables juices ciders"},{"type":"farm","street":"5095 old state rd","city":"Edinboro","state":"PA","zip":"16412","longitude":"-80.130026","latitude":"41.932811","name":"Hulings Blueberries and Farm Market","website":"hulingsblueberries.com","facebook":"Hulings Blueberries","twitter":"","tags":"baked-goods bedding plants canned preserved cut-flowers dairy products dry beans eggs herbs fresh-fruits fresh-vegetables honey maple-products soap body-care"},{"type":"farm","street":"50 Lake Rd","city":"Hamburg","state":"PA","zip":"19526","longitude":"-75.887804","latitude":"40.498031","name":"Humming Hills Farm, LLC","website":"https://humminghillsfarm.com","facebook":"https://facebook.com/humminghillsfarm.com","twitter":"","tags":"eggs herbs"},{"type":"farm","street":"270 Wilpen Rd","city":"Ligonier","state":"PA","zip":"15658","longitude":"-79.203738","latitude":"40.275947","name":"Jamboree Farm","website":"http://jamboreefarm.blogspot.com/","facebook":"https://www.facebook.com/jamboreefarm","twitter":"https://twitter.com/JamboreeFarm","tags":"canned preserved eggs herbs fresh-fruits fresh-vegetables juices ciders poultry fowl red-meat non-poultry-meat wild-harvested forest-products"},{"type":"farm","street":"3403 N. Balsiger Road","city":"Apollo borough","state":"PA","zip":"15613","longitude":"-79.503008","latitude":"40.603351","name":"Kistaco Farm Market","website":"http://kistacofarm.com/ ","facebook":"https://www.facebook.com/pages/Kistaco-Farm/151290458223231?fref=ts ","twitter":"","tags":"baked-goods bedding plants canned preserved coffee tea dairy products eggs herbs fresh-fruits fresh-vegetables grains flour honey juices ciders maple-products pet-food prepared-foods soap body-care"},{"type":"farm","street":"136 California Drive","city":"Coal Center","state":"PA","zip":"15423","longitude":"-79.9804745","latitude":"40.1059950","name":"Lowden Farm LLC","website":"","facebook":"","twitter":"","tags":"red-meat non-poultry-meat"},{"type":"farm","street":"3157 Comfort Road","city":"Solebury","state":"PA","zip":"18963","longitude":"-75.006565","latitude":"40.395989","name":"Manoff Market Gardens","website":"www.manoffmarketgardens.com","facebook":"https://www.facebook.com/manoffmarketgardens","twitter":"","tags":"baked-goods canned preserved cut-flowers eggs herbs fresh-fruits fresh-vegetables honey maple-products"},{"type":"farm","street":"171 Many Springs Farm Road","city":"Portersville","state":"PA","zip":"16051","longitude":"-80.1884470","latitude":"40.9541520","name":"Many Springs Farm","website":"","facebook":"","twitter":"","tags":"baked-goods crafts woodworking eggs honey soap body-care"},{"type":"farm","street":"543 Jo Jo Rd","city":"Kane","state":"PA","zip":"16735","longitude":"-78.837090","latitude":"41.643853","name":"Maple Glen Farm","website":"","facebook":"Maple Glen Farm","twitter":"","tags":"bedding plants canned preserved cut-flowers nursery-stock"},{"type":"farm","street":"329 BenVenue Rd","city":"Zelienople","state":"PA","zip":"16123","longitude":"-80.157104","latitude":"40.786906","name":"Mazur's Greenhouse and Farm","website":"","facebook":"Mazur's Greenhouse and Farm","twitter":"","tags":"baked-goods bedding plants canned preserved herbs fresh-fruits fresh-vegetables juices ciders nursery-stock"},{"type":"farm","street":"329 BenVenue Rd","city":"Zelienople ","state":"PA","zip":"16123","longitude":"-80.156903","latitude":"40.787197","name":"Mazur’s Greenhouse and Farm ","website":"","facebook":"https://www.facebook.com/Mazurs-Greenhouse-and-Farm-225721554196893/","twitter":"","tags":"baked-goods bedding plants canned preserved herbs fresh-fruits fresh-vegetables honey"},{"type":"farm","street":"836 Cleland Mill Road","city":"New Castle","state":"PA","zip":"16102","longitude":"-80.407753","latitude":"40.956053","name":"McConnell's Christmas Tree Farm","website":"www.mcconnellsnursery.com","facebook":"https://www.facebook.com/pages/McConnells-Christmas-Tree-Farm/136507896405104?ref=br_tf","twitter":"","tags":"nursery-stock"},{"type":"farm","street":"691 Furnace St.","city":"Robesonia","state":"PA","zip":"19551","longitude":"-76.157888","latitude":"40.333923","name":"Meadow Mountain Farm","website":"www.meadowmountainfarm.com","facebook":"https://www.facebook.com/pages/Meadow-Mountain-Farm/158613630836462?v=wall","twitter":"","tags":"poultry fowl"},{"type":"farm","street":"2236 N. 1st Ave.","city":"Whitehall","state":"PA","zip":"18052","longitude":"-75.4788140","latitude":"40.6495300","name":"Mondjack Apiaries","website":"www.Mondjackapiaries.com","facebook":"https://www.facebook.com/Mondjackapiaries","twitter":"","tags":"honey"},{"type":"farm","street":"31 Riverdale Road","city":"Forest City","state":"PA","zip":"18421","longitude":"-75.394530","latitude":"41.694289","name":"Mount Pleasant Herbary","website":"www.mountpleasantherbary.com","facebook":"https://www.facebook.com/MountPleasantHerbary","twitter":"","tags":"soap body-care"},{"type":"farm","street":"429 Strasburg Road","city":"Paradise","state":"PA","zip":"17562","longitude":"-76.122298","latitude":"40.00623","name":"Myer Hill Chicken","website":"https://www.myerhillchicken.com/","facebook":"","twitter":"","tags":"poultry fowl"},{"type":"farm","street":"2318 Butler Logan Road Frazer Township","city":"Tarentum","state":"PA","zip":"15084","longitude":"-79.803454","latitude":"40.587205","name":"Normans Orchard","website":"www.normansorchard.com","facebook":"","twitter":"","tags":"fresh-fruits"},{"type":"farm","street":"1919 Harrisville Rd","city":"Stoneboro","state":"PA","zip":"16153","longitude":"-80.046348","latitude":"41.289557","name":"Old Time Farm","website":"www.OldTime.Farm","facebook":"https://www.facebook.com/Shelly.OldTimeFarm/","twitter":"","tags":"baked-goods eggs herbs maple-products poultry fowl red-meat non-poultry-meat wild-harvested forest-products"},{"type":"farm","street":"2611 Mile Post Rd.","city":"Sunbury","state":"PA","zip":"17801","longitude":"-76.704561","latitude":"40.909558","name":"Owens Farm","website":"www.owensfarm.com","facebook":"www.facebook.com/pages/Owens-Farm/168876806466611","twitter":"","tags":"honey poultry fowl red-meat non-poultry-meat"},{"type":"farm","street":"225 Laidig Road","city":"Harrisonville","state":"PA","zip":"17228","longitude":"-78.094771","latitude":"40.037076","name":"Path of Light Farm","website":"","facebook":"https://www.facebook.com/pages/Path-of-Light-Farm/","twitter":"","tags":"bedding plants canned preserved cut-flowers dry beans eggs herbs fresh-fruits fresh-vegetables honey"},{"type":"farm","street":"150 Trenton Ave","city":"Hulmeville borough","state":"PA","zip":"19047","longitude":"-74.906944","latitude":"40.143277","name":"Phoenix Farms","website":"www.phoenixfarms.us","facebook":"http://facebook.com/thephoenixfarm","twitter":"","tags":"canned preserved eggs fresh-vegetables poultry fowl"},{"type":"farm","street":"17800 Dry Run Road South","city":"Dry Run","state":"PA","zip":"17220","longitude":"-77.749344","latitude":"40.155559","name":"Redd Hott Cattle Co.","website":"","facebook":"https://www.facebook.com/reddhottcattleco/","twitter":"","tags":"eggs red-meat non-poultry-meat"},{"type":"farm","street":"604 Footedale Rd","city":"New Salem ","state":"PA","zip":"15468","longitude":"-79.836409","latitude":"39.916362","name":"Redrange Farm","website":"https://www.redrangefarm.com/","facebook":"https://www.facebook.com/redrangefarm","twitter":"","tags":"eggs herbs fresh-vegetables maple-products poultry fowl red-meat non-poultry-meat wild-harvested forest-products"},{"type":"farm","street":"47 Jefferson St.","city":"Tidioute","state":"PA","zip":"16351","longitude":"-79.3950380","latitude":"41.6849289","name":"Riverview Farms","website":"http://www.riverviewfarmspa.com","facebook":"","twitter":"","tags":""},{"type":"farm","street":"240 Southern Drive","city":"Catawissa","state":"PA","zip":"17820","longitude":"-76.4593630","latitude":"40.9299950","name":"Rohrbach's Farm Market","website":"rohrbachsfarm.net","facebook":"https://www.facebook.com/pages/Rohrbachs-Farm-Market-Bakery-and-Gift-Shop/63601237131?ref=hl&ref_type=bookmark","twitter":"","tags":"baked-goods canned preserved dairy products eggs fresh-fruits fresh-vegetables honey juices ciders maple-products prepared-foods"},{"type":"farm","street":"848 Wallace Rd","city":"Troy","state":"PA","zip":"16947","longitude":"-76.670417","latitude":"41.769243","name":"Running Bear Farm Stand","website":"","facebook":"https://www.facebook.com/Running-Bear-Farm-245849665535840/","twitter":"","tags":"cut-flowers eggs fresh-vegetables poultry fowl prepared-foods"},{"type":"farm","street":"3057 Center Street","city":"Bethlehem","state":"PA","zip":"18017","longitude":"-75.378204","latitude":"40.656316","name":"Scholl Orchards","website":"http://schollorchards.com/","facebook":"www.facebook.com/schollorchardsPA","twitter":"","tags":"canned preserved cut-flowers fresh-fruits fresh-vegetables honey juices ciders"},{"type":"farm","street":"429 Happy Hollow Road","city":"Mifflintown","state":"PA","zip":"17059","longitude":"-77.350194","latitude":"40.590023","name":"Serenity Hills Farms","website":"","facebook":"https://www.facebook.com/frmrfrd/","twitter":"","tags":"red-meat non-poultry-meat"},{"type":"farm","street":"170 Simmons Road","city":"McMurray","state":"PA","zip":"15317","longitude":"-80.083087","latitude":"40.2682","name":"Simmons Farm","website":"","facebook":"https://www.facebook.com/SimmonsFarm","twitter":"","tags":""},{"type":"farm","street":"917 small valley road","city":"halifax","state":"PA","zip":"17032","longitude":"-76.806737","latitude":"40.496228","name":"small valley milling","website":"small valley milling.com","facebook":"","twitter":"","tags":"fresh-vegetables grains flour"},{"type":"farm","street":"2573 Brandt School Road","city":"Wexford","state":"PA","zip":"15237","longitude":"-80.092730","latitude":"40.613911","name":"Soergel Orchards","website":"www.soergels.com","facebook":"","twitter":"","tags":"baked-goods bedding plants canned preserved coffee tea crafts woodworking eggs herbs fresh-fruits fresh-vegetables honey juices ciders maple-products nursery-stock nuts prepared-foods wine spirits beer hard-cider"},{"type":"farm","street":"3325 Creamery Road","city":"New Hope","state":"PA","zip":"18938","longitude":"-75.0258912","latitude":"40.3846846","name":"Solebury Orchards","website":"soleburyorchards.com","facebook":"www.facebook.com/soleburyorchards","twitter":"twitter.com/SoleburyOrch","tags":"canned preserved cut-flowers eggs fresh-fruits fresh-vegetables honey juices ciders"},{"type":"farm","street":"2331 Chewton Wurtemburg Rd","city":"Wampum","state":"PA","zip":"16157","longitude":"-80.290508","latitude":"40.885714","name":"Stramba Farm Alpacas & More","website":"","facebook":"","twitter":"","tags":""},{"type":"farm","street":"3045 Mountain Road","city":"Saylorsburg","state":"PA","zip":"18353","longitude":"-75.3287854","latitude":"40.8608203","name":"Stryker Farm","website":"www.strykerfarm.com","facebook":"https://www.facebook.com/strykerfarm","twitter":"https://twitter.com/strykerfarm","tags":"canned preserved dairy products eggs honey maple-products poultry fowl red-meat non-poultry-meat soap body-care"},{"type":"farm","street":"232 North High Street in Arendtsville","city":"Biglerville","state":"PA","zip":"17307","longitude":"-77.302631","latitude":"39.926690","name":"Swartz's Pumpkin Patch","website":"www.swartzspumpkinpatch.com","facebook":"https://www.facebook.com/pages/Swartzs-Pumpkin-Patch-in-Arendtsville-PA/278268028879283","twitter":"","tags":"fresh-fruits fresh-vegetables"},{"type":"farm","street":"14066 Wayne Hwy","city":"Waynesboro","state":"PA","zip":"17268","longitude":"-77.595770","latitude":"39.739070","name":"TLM Hillside Farm","website":"http://www.tlmhillsidefarm.com/","facebook":"","twitter":"https://twitter.com/TLMHillsideFarm","tags":"eggs fresh-vegetables"},{"type":"farm","street":"215 Shady Lane","city":"Muncy","state":"PA","zip":"17756","longitude":"-76.775489","latitude":"41.212668","name":"Tom Styer Farm  & Market","website":"","facebook":"","twitter":"","tags":"bedding plants canned preserved eggs fresh-fruits fresh-vegetables honey maple-products"},{"type":"farm","street":"823 Berry Lane","city":"Monongahela ","state":"PA","zip":"15063","longitude":"-79.9465890","latitude":"40.2276750","name":"Triple B Farms","website":"http://www.triplebfarms.com/","facebook":"https://www.facebook.com/TripleBFarmsFreshLocalFoodandFun/?ref=hl","twitter":"https://twitter.com/TripleBFarmsFUN","tags":"baked-goods canned preserved crafts woodworking dairy products eggs fresh-fruits fresh-vegetables honey juices ciders maple-products prepared-foods soap body-care"},{"type":"farm","street":"678 Cochecton Tpke","city":"Tyler Hill","state":"PA","zip":"18469","longitude":"-75.168551","latitude":"41.698768","name":"Twin Brook Farms","website":"http://www.twinbrookfarmsandlivestock.com","facebook":"https://www.facebook.com/TwinBrookFarms ","twitter":"","tags":""},{"type":"farm","street":"880 Valley Rd ","city":"Tamaqua","state":"PA","zip":"18252","longitude":"-76.013023","latitude":"40.755474","name":"Valley Road Farm","website":"Http://valleyroadfarm.com","facebook":"Valley road farm tamaqua","twitter":"","tags":"cut-flowers fresh-fruits fresh-vegetables honey"},{"type":"farm","street":"1061 Sugar Run Road","city":"Avella","state":"PA","zip":"15312","longitude":"-80.469051","latitude":"40.253648","name":"Weatherbury Farm","website":"http://weatherburyfarm.com/","facebook":"https://www.facebook.com/WeatherburyFarm/","twitter":"","tags":"grains flour"},{"type":"farm","street":"181 Camp Road","city":"Douglassville","state":"PA","zip":"19518","longitude":"-75.739851","latitude":"40.332461","name":"Wholesome Dairy Farms","website":"http://www.wholesomedairyfarms.com/","facebook":"http://www.facebook.com/pages/Wholesome-Dairy-Farms/77319243038","twitter":"https://twitter.com/WholesomeDairy","tags":"dairy products eggs red-meat non-poultry-meat"},{"type":"farm","street":"10445 Route 28 North","city":"Brockway","state":"PA","zip":"15824","longitude":"-78.902435","latitude":"41.232380","name":"Windy Hill Farm","website":"www.windyhillfarmnaturals.com","facebook":"","twitter":"","tags":"crafts woodworking eggs herbs fresh-fruits fresh-vegetables maple-products nuts soap body-care"},{"type":"farm","street":"1600 State Road","city":"Duncannon","state":"PA","zip":"17020","longitude":"-76.9892570","latitude":"40.3557289","name":"Yeehaw Farm Store and Local Foods Co Op","website":"www.yeehawfarms.com","facebook":"https://www.facebook.com/pages/Yeehaw-Farm/179809875371755","twitter":"","tags":"baked-goods canned preserved crafts woodworking cut-flowers dairy products dry beans eggs fish seafood herbs fresh-fruits fresh-vegetables grains flour honey juices ciders maple-products mushrooms poultry fowl red-meat non-poultry-meat soap body-care"},{"type":"farm","street":"670 Yellow Hill Road","city":"Biglerville","state":"PA","zip":"17307","longitude":"-77.264554","latitude":"39.939328","name":"Yellow Hill Farm","website":"www.yellowhillfarm.com","facebook":"www.facebook.com/YellowHillFarmBerries","twitter":"","tags":"cut-flowers"},{"type":"farm","street":"9327 Gap Rd","city":"Waynesboro","state":"PA","zip":"17268","longitude":"-77.537243","latitude":"39.783349","name":"Yesterdays Favorites Farm","website":"www.yesterdaysfavoritesfarm.com","facebook":"https://www.facebook.com/yesterdaysfavorites","twitter":"","tags":"bedding plants dairy products eggs herbs fresh-fruits"},{"type":"market","name":"Adams County Farmers Market","website":"","facebook":"www.facebook.com/AdamsCountyFarmersMarket","twitter":"@ACFarmFresh","street":"103 Carlisle Street","city":"Gettysburg","state":"PA","zip":"17325","longitude":"-77.234147","latitude":"39.830597","tags":"organic baked goods cheese flowers eggs herbs vegetables honey jams maple meat poultry prepared-foods soap wine coffee fruits pet food"},{"type":"market","name":"Adams County Farmers' Market Association","website":"http://www.acfarmersmarkets.org","facebook":"www.facebook.com/AdamsCountyFarmersMarket","twitter":"https://twitter.com/ACFarmFresh","street":"103 Carlisle Street","city":"Gettysburg","state":"PA","zip":"17325","longitude":"-77.234147","latitude":"39.830597","tags":"baked goods cheese flowers eggs herbs vegetables honey jams maple poultry prepared-foods wine coffee fruits mushrooms"},{"type":"market","name":"Adams-Ricci Farmers Market","website":"","facebook":"https://www.facebook.com/FarmersAtAdamsRicciParkEast/","twitter":"@adamsriccifm","street":"100 East Penn Drive","city":"Enola","state":"PA","zip":"17025","longitude":"-76.937407","latitude":"40.273997","tags":"baked goods cheese flowers eggs herbs vegetables honey jams meat plants poultry prepared-foods soap wine coffee beans fruits pet food"},{"type":"market","name":"Ambler Farmers' Market","website":"http://www.farmtocitymarkets.com","facebook":"https://www.facebook.com/FarmToCity","twitter":"","street":"29 West Butler Pike","city":"Ambler","state":"PA","zip":"19002","longitude":"-75.225298","latitude":"40.153501","tags":"organic baked goods cheese crafts flowers eggs vegetables honey jams maple meat plants poultry prepared-foods soap trees wine coffee fruits mushrooms pet food"},{"type":"market","name":"Bethlehem Farmers' Market","website":"http://www.bethlehemfarmersmarket.com","facebook":"facebook.com/BethlehemFarmersMarketPA","twitter":"twitter.com/BethFarmMkt","street":"Intersection of New and Morton Streets","city":"Bethlehem","state":"PA","zip":"18015","longitude":"-75.3784029","latitude":"40.6098058","tags":"baked goods flowers eggs herbs vegetables honey jams meat nuts poultry prepared-foods soap fruits mushrooms"},{"type":"market","name":"Birdsboro Farmers Market","website":"https://birdsboropa.org/community-events/","facebook":"https://m.facebook.com/events/main-bird-park-226-n-water-st-birdsboro-pa-19508/birdsboro-farmers-market/752878688717725/","twitter":"","street":"226 N Water St","city":"Birdsboro","state":"PA","zip":"19508","longitude":"-75.810113","latitude":"40.262329","tags":"baked goods crafts flowers eggs herbs vegetables honey jams plants prepared-foods soap coffee fruits juices pet food"},{"type":"market","name":"Bloomfield Saturday Market","website":"http://www.bloomfieldpgh.org","facebook":"https://www.facebook.com/bloomfieldmarket/","twitter":"","street":"5050 Liberty Ave","city":"Pittsburgh","state":"PA","zip":"15224","longitude":"-79.944435","latitude":"40.459005","tags":"organic baked goods cheese flowers eggs seafood herbs vegetables honey jams maple meat poultry prepared-foods soap wine coffee fruits juices mushrooms wild"},{"type":"market","name":"Bryn Mawr Farmers' Market","website":"http://www.farmtocitymarkets.com","facebook":"https://www.facebook.com/TBMFM","twitter":"","street":"775 Lancaster Avenue","city":"Bryn Mawr","state":"PA","zip":"19010","longitude":"-75.317067","latitude":"40.021168","tags":"organic baked goods cheese flowers eggs herbs vegetables honey jams maple meat plants poultry prepared-foods soap trees wine coffee fruits grains mushrooms pet food wild"},{"type":"market","name":"Chestnut Hill Farmers' Market","website":"http://www.farmtocitymarkets.com","facebook":"https://www.facebook.com/AmblerFarmersMarket","twitter":"","street":"7673 Germantown Avenue","city":"Philadelphia","state":"PA","zip":"19118","longitude":"-75.196931","latitude":"40.067760","tags":"organic baked goods cheese flowers eggs seafood vegetables honey jams meat plants poultry prepared-foods soap trees wine coffee fruits mushrooms pet food"},{"type":"market","name":"City of Pittsburgh Carrick Farmers Market","website":"","facebook":"","twitter":"","street":"1529 Brownsville Road","city":"Pittsburgh ","state":"PA","zip":"15210","longitude":"-79.988803","latitude":"40.400201","tags":"baked goods vegetables honey prepared-foods fruits"},{"type":"market","name":"Co-Operative Farmers Market","website":"http://www.coopfarmersmarket.com","facebook":"Co-Operative Farmers Market","twitter":"","street":"900 Barring Avenue","city":"Scranton","state":"PA","zip":"18508","longitude":"-75.662496","latitude":"41.422523","tags":"baked goods cheese flowers eggs herbs vegetables honey jams maple nuts plants poultry prepared-foods soap wine beans fruits"},{"type":"market","name":"Dickinson Square Farmers' Market","website":"http://www.farmtocitymarkets.com","facebook":"https://www.facebook.com/DSPFarmersMarket","twitter":"","street":"1600 East Moyamensing Avenue","city":"Philadelphia","state":"PA","zip":"19148","longitude":"-75.151276","latitude":"39.927056","tags":"baked goods crafts flowers eggs herbs vegetables honey jams meat poultry prepared-foods soap trees wine fruits mushrooms pet food"},{"type":"market","name":"Dillsburg Farmers' Market","website":"http://dillsburgfarmersma.wixsite.com/dbgfarmersmarket","facebook":"https://www.facebook.com/DillsburgFarmersMarket/","twitter":"","street":"1 N. 2nd Street ","city":"Dillsburg","state":"PA","zip":"17019","longitude":"-77.037849","latitude":"40.110975","tags":"organic"},{"type":"market","name":"Downingtown Farmers Market","website":"http://growingrootspartners.com","facebook":"https://www.facebook.com/DowningtownFarmersMarket/","twitter":"","street":"1 Park Lane","city":"Downingtown","state":"PA","zip":"19335","longitude":"-75.705606","latitude":"40.007243","tags":"baked goods cheese crafts flowers eggs herbs vegetables honey jams maple meat poultry soap wine coffee fruits grains juices mushrooms pet food"},{"type":"market","name":"Easton Farmers' Market","website":"https://eastonfarmersmarket.com","facebook":"https://www.facebook.com/EastonFarmersMarket","twitter":"https://twitter.com/buyfresh","street":"128 Larry Holmes Drive ","city":"Easton ","state":"PA","zip":"18042","longitude":"-75.206274","latitude":"40.689778","tags":"organic baked goods cheese crafts flowers eggs herbs vegetables honey jams meat plants poultry prepared-foods soap wine coffee fruits grains juices mushrooms pet food tofu wild"},{"type":"market","name":"Emmaus Farmers' Market","website":"http://www.emmausmarket.com","facebook":"https://www.facebook.com/EmmausFarmersMarket/","twitter":"https://www.twitter.com/EmmausFarmMkt/","street":"235 Main St","city":"Emmaus","state":"PA","zip":"18049","longitude":"-75.4903","latitude":"40.5366","tags":"organic baked goods cheese flowers eggs herbs vegetables honey jams maple meat plants poultry prepared-foods wine coffee fruits mushrooms pet food wild"},{"type":"market","name":"Farmers on the Square","website":"http://www.farmersonthesquare.com","facebook":"https://www.facebook.com/FarmersontheSquare/","twitter":"","street":"2A N Hanover St","city":"Carlisle","state":"PA","zip":"17013","longitude":"-77.189254","latitude":"40.201689","tags":"organic baked goods cheese flowers eggs seafood herbs vegetables honey jams maple meat poultry prepared-foods soap trees wine coffee beans fruits juices mushrooms"},{"type":"market","name":"Forest Hills Farmers Market","website":"http://www.foresthillsfarmersmarket.com","facebook":"Forest Hills PA Farmers Market","twitter":"","street":"1840 Ardmore Blvd","city":"Pittsburgh","state":"PA","zip":"15221","longitude":"-79.861110","latitude":"40.425019","tags":"baked goods flowers eggs herbs vegetables honey jams meat plants poultry prepared-foods fruits"},{"type":"market","name":"Fresh2You Mobile Market","website":"http://chestercountyfoodbank.org/programs/fresh2you/","facebook":"@fresh2youmarket","twitter":"@fresh2youmarket","street":"","city":"Phoenixville, Pottstown, Coatesville, Parkesburg, West Chester, Kennett Square and Oxford","state":"PA","zip":"","longitude":"-75.748454","latitude":"39.9731925","tags":"eggs herbs vegetables honey beans fruits grains"},{"type":"market","name":"Gorgas Park Farmers' Market","website":"http://www.farmtocitymarkets.com","facebook":"https://www.facebook.com/FarmToCity","twitter":"","street":"6300 Ridge Avenue","city":"Philadelphia","state":"PA","zip":"19128","longitude":"-75.221221","latitude":"40.037308","tags":"baked goods flowers eggs vegetables honey jams plants poultry trees fruits"},{"type":"market","name":"Greater Washington County Food Bank Farmers' Market","website":"http://www.gwcfb.org","facebook":"Greater Washington County Food Bank","twitter":"","street":"909 National Pike West","city":"Brownsville","state":"PA","zip":"15417","longitude":"-79.977907","latitude":"40.041867","tags":"baked goods crafts flowers eggs herbs vegetables honey plants prepared-foods soap coffee fruits"},{"type":"market","name":"Hanover Market House","website":"http://www.hanover-market.com","facebook":"www.Facebook.com/hanovermarket","twitter":"","street":"210 East Chestnut Street","city":"Hanover","state":"PA","zip":"17331","longitude":"-76.982610","latitude":"39.803273","tags":"baked goods cheese crafts eggs herbs vegetables honey jams meat poultry prepared-foods soap wine coffee fruits"},{"type":"market","name":"Huntingdon Farmers' Market","website":"https://www.huntingdonfarmersmarket.org/","facebook":"https://www.facebook.com/HuntFarmMarket","twitter":"","street":"842 Penn Street","city":"Huntingdon","state":"PA","zip":"16652","longitude":"-78.017230","latitude":"40.485653","tags":"organic baked goods cheese flowers eggs herbs vegetables honey jams meat plants poultry prepared-foods soap wine fruits mushrooms wild"},{"type":"market","name":"Indiana County Farmers Market ","website":"https://indianafarmmarket.blogspot.com/","facebook":"https://www.facebook.com/indianafarmmarket/","twitter":"","street":"8th & Church St.","city":"Indiana","state":"PA","zip":"15701","longitude":"-79.155021","latitude":"40.621852","tags":"baked goods flowers eggs herbs vegetables honey jams maple meat poultry soap fruits grains"},{"type":"market","name":"Jefferson Farmers' Market","website":"http://www.farmtocitymarkets.com","facebook":"https://www.facebook.com/Jefferson-Farmers-Market-129580207073874","twitter":"","street":"925 Chestnut Street","city":"Philadelphia","state":"PA","zip":"19107","longitude":"-75.156213","latitude":"39.949940","tags":"baked goods flowers vegetables honey plants prepared-foods trees fruits"},{"type":"market","name":"KSQ Farmers Market","website":"http://ksqfarmersmarket.com","facebook":"facebook.com/ksqfarmersmarket","twitter":"","street":"401 Birch St","city":"Kennett Square","state":"PA","zip":"19348","longitude":"-75.705331","latitude":"39.842787","tags":"organic baked goods cheese eggs vegetables honey jams maple meat poultry prepared-foods soap wine coffee grains mushrooms"},{"type":"market","name":"Lansdale Farmers' Market","website":"https://www.lansdalefarmersmarket.org/","facebook":"https://www.facebook.com/LansdaleFarmersMarket/","twitter":"Twitter: @LansdaleFM","street":"400 Penn Street","city":"Lansdale","state":"PA","zip":"19446","longitude":"-75.277496","latitude":"40.234201","tags":"organic baked goods cheese flowers eggs seafood herbs vegetables honey jams maple meat poultry prepared-foods soap trees coffee fruits grains juices mushrooms pet food wild"},{"type":"market","name":"Lawrenceville Farmers Market","website":"http://www.lunited.org/programs/community-planning-development/lawrenceville-farmers-market/","facebook":"www.facebook.com/lvillefarmmarket","twitter":"","street":"250 40th Street","city":"Pittsburgh","state":"PA","zip":"15201","longitude":"-79.961092","latitude":"40.467011","tags":"baked goods cheese flowers eggs herbs vegetables honey jams maple meat poultry prepared-foods soap wine coffee fruits juices mushrooms wild"},{"type":"market","name":"Ligonier Country Market","website":"http://www.ligoniercountrymarket.com","facebook":"@LigonierCountryMarket","twitter":"@LigonierMarket","street":"110 Andi Lane","city":"Ligonier","state":"PA","zip":"15658","longitude":"-79.2507333","latitude":"40.2501886","tags":"organic baked goods cheese crafts flowers eggs herbs vegetables honey jams maple meat nuts plants poultry prepared-foods soap trees wine coffee fruits juices mushrooms pet food wild"},{"type":"market","name":"Little Italy Farmers Market","website":"http://www.ssjnn.org","facebook":"https://www.facebook.com/SSJNN/","twitter":"https://twitter.com/SSJNN","street":"331 West 18th Street","city":"Erie","state":"PA","zip":"16502","longitude":"-80.0850810","latitude":"42.1155929","tags":"baked goods crafts flowers vegetables honey soap fruits"},{"type":"market","name":"Main Street Farmers Market","website":"","facebook":"https://www.facebook.com/washingtonfarmers","twitter":"","street":"South Main at Wheeling","city":"Washington","state":"PA","zip":"15301","longitude":"-80.245","latitude":"40.169","tags":"baked goods cheese flowers eggs herbs vegetables honey jams maple meat plants poultry prepared-foods wine coffee fruits grains juices"},{"type":"market","name":"Main Street Farmers Market","website":"https://thecooperageproject.org/markets/farmersmarket/","facebook":"https://www.facebook.com/pg/thecooperageproject/events/?ref=page_internal","twitter":"","street":"1030 Main Street","city":"Honesdale","state":"PA","zip":"18431","longitude":"-75.257714","latitude":"41.575082","tags":"organic baked goods eggs herbs vegetables maple meat poultry prepared-foods fruits"},{"type":"market","name":"Media Farmers' Market","website":"http://www.farmtocitymarkets.com","facebook":"https://www.facebook.com/mediafarmersmarket","twitter":"","street":"Edgemont Street","city":"Media","state":"PA","zip":"19063","longitude":"-75.385551","latitude":"39.917838","tags":"organic baked goods cheese flowers eggs herbs vegetables honey jams meat plants poultry prepared-foods soap wine fruits mushrooms pet food"},{"type":"market","name":"Mt Airy Farmers' Market","website":"http://www.farmtocitymarkets.com","facebook":"https://www.facebook.com/Mt-Airy-Farmers-Market-115303871848990","twitter":"","street":"601 Carpenter Lane","city":"Philadelphia","state":"PA","zip":"19119","longitude":"-75.196253","latitude":"40.046156","tags":"baked goods flowers vegetables honey jams fruits"},{"type":"market","name":"Murrysville Farmers' Market","website":"https://murrysvilleparecreation.com/190/Farmers-Market","facebook":"https://www.facebook.com/Murrysville-Farmers-Market-452857878198702/","twitter":"","street":"3235 Sardis Road","city":"Murrysville","state":"PA","zip":"15668","longitude":"-79.696788","latitude":"40.430121","tags":"organic baked goods flowers eggs herbs vegetables honey jams maple meat plants poultry prepared-foods soap trees wine fruits grains"},{"type":"market","name":"North Square Farmers Market","website":"http://www.northsquarefarmersmarket.com","facebook":"https://www.facebook.com/pages/North-Square-Farmers-Market/114897878526668","twitter":"","street":"100 Spring St","city":"Chambersburg","state":"PA","zip":"17201","longitude":"-77.662435","latitude":"39.938459","tags":"baked goods cheese crafts flowers eggs herbs vegetables honey jams maple meat plants poultry prepared-foods soap wine fruits mushrooms wild"},{"type":"market","name":"Northampton Pa Farmers Market","website":"","facebook":"Northampton Pa Farmers Market","twitter":"","street":"1401 Laubach Avenue Municipal Park","city":"Northampton ","state":"PA","zip":"18067","longitude":"-75.489035","latitude":"40.684278","tags":"baked goods crafts flowers herbs vegetables honey jams plants poultry prepared-foods wine fruits"},{"type":"market","name":"Patch & Pasture, LLC","website":"","facebook":"https://www.facebook.com/patchandpasture/","twitter":"","street":"17004 Path Valley Rd","city":"Spring Run","state":"PA","zip":"17262","longitude":"-77.766771","latitude":"40.151488","tags":"baked goods cheese crafts eggs herbs vegetables honey jams meat plants prepared-foods fruits mushrooms"},{"type":"market","name":"Pretzel Park Farmers Market","website":"http://www.friendsofpretzelpark.org","facebook":"https://www.facebook.com/pretzelparkfarmersmarket","twitter":"","street":"4300 Silverwood Street","city":"Philadelphia ","state":"PA","zip":"19127","longitude":"-75.220985","latitude":"40.025446","tags":"baked goods cheese crafts flowers eggs herbs vegetables honey jams maple meat poultry prepared-foods soap wine coffee fruits grains mushrooms pet food"},{"type":"market","name":"Rittenhouse Saturday Farmers' Market","website":"http://www.farmtocitymarkets.com","facebook":"https://www.facebook.com/RittenhouseFarmersMarket","twitter":"","street":"1800 Walnut Street","city":"Philadelphia","state":"PA","zip":"19103","longitude":"-75.170836","latitude":"39.950039","tags":"baked goods cheese crafts flowers eggs seafood herbs vegetables honey jams meat plants poultry prepared-foods soap trees wine coffee fruits grains mushrooms pet food wild"},{"type":"market","name":"Rittenhouse Tuesday Market","website":"http://www.farmtocitymarkets.com","facebook":"https://www.facebook.com/RittenhouseFarmersMarket","twitter":"","street":"1800 Walnut Street","city":"Philadelphia","state":"PA","zip":"19103","longitude":"-75.170843","latitude":"39.950045","tags":"organic baked goods flowers eggs vegetables honey jams poultry prepared-foods wine fruits"},{"type":"market","name":"Ross Township Farmers Market","website":"","facebook":"https://www.facebook.com/Ross-Twp-Farmers-Market-414344225264700/","twitter":"","street":"920 Perry Hwy","city":"Pittsburgh ","state":"PA","zip":"15229","longitude":"-80.036108","latitude":"40.533713","tags":"baked goods cheese crafts eggs herbs vegetables honey jams maple meat plants poultry prepared-foods soap coffee fruits juices pet food"},{"type":"market","name":"Slippery Rock Farmers Market ","website":"","facebook":"https://www.facebook.com/SRCFM/","twitter":"","street":"Gateway Park, 100 Midway Street","city":"Slippery Rock","state":"PA","zip":"16057","longitude":"-80.050842","latitude":"41.062533","tags":"baked goods crafts flowers eggs herbs vegetables honey jams meat plants poultry prepared-foods soap wine coffee fruits juices mushrooms pet food wild"},{"type":"market","name":"Somerset County Farmers' Market Inc.","website":"http://somersetcountyfarmersmarket.com","facebook":"https://www.facebook.com/Somerset-County-Farmers-Market-139142146101195/","twitter":"","street":"800 Georgian Place ","city":"Somerset","state":"PA","zip":"15501","longitude":"-79.072141","latitude":"40.022787","tags":"baked goods flowers eggs herbs vegetables jams maple meat plants poultry soap wine coffee fruits pet food"},{"type":"market","name":"South Side Farmers' Market","website":"http://www.facebook.com/southsidefarmersmarket","facebook":"www.facebook.com/southsidefarmersmarket","twitter":"","street":"Alder Street and Cedar Avenue","city":"Scranton","state":"PA","zip":"18505","longitude":"-75.6668643","latitude":"41.4003507","tags":"organic baked goods cheese flowers eggs vegetables honey jams maple meat plants poultry prepared-foods soap coffee fruits"},{"type":"market","name":"STCC Open Air Market","website":"","facebook":"https://www.facebook.com/STCCOpenAirMarket/","twitter":"https://twitter.com/StccOAM","street":"180 Airport Road","city":"Shippensburg","state":"PA","zip":"17257","longitude":"-77.477569","latitude":"40.050647","tags":"organic baked goods cheese crafts flowers eggs seafood herbs vegetables honey jams maple meat plants poultry prepared-foods soap wine coffee fruits juices mushrooms wild"},{"type":"market","name":"Swarthmore Farmers Market","website":"http://www.farmtocitymarkets.com","facebook":"https://www.facebook.com/swarthmorefarmersmarket","twitter":"","street":"121 Park Avenue","city":"Swarthmore","state":"PA","zip":"19081","longitude":"-75.348771","latitude":"39.901671","tags":"baked goods cheese crafts flowers eggs herbs vegetables honey jams maple meat plants poultry prepared-foods soap trees wine coffee fruits mushrooms pet food"},{"type":"market","name":"The Fountain Farmers' Market","website":"http://www.farmtocitymarkets.com","facebook":"https://www.facebook.com/FarmToCity","twitter":"","street":"The Singing Fountain","city":"Philadelphia","state":"PA","zip":"19147","longitude":"-75.163171","latitude":"39.929934","tags":"baked goods flowers eggs herbs vegetables honey prepared-foods fruits"},{"type":"market","name":"The Markets at Shrewsbury","website":"http://www.marketsatshrewsbury.com","facebook":"The Markets at Shrewsbury","twitter":"The Markets at Shrewsbury","street":"12025 Susquehanna Trail S","city":"Glen Rock","state":"PA","zip":"17327","longitude":"-76.730703","latitude":"39.793503","tags":"baked goods cheese crafts flowers eggs seafood herbs vegetables honey jams maple meat nuts plants poultry prepared-foods soap wine coffee beans fruits grains juices mushrooms pet food"},{"type":"market","name":"Titusville Open Air Market","website":"","facebook":"https://www.facebook.com/titusvilleopenairmarket/?ref=aymt_homepage_panel","twitter":"","street":"11652 Hydetown Road","city":"Titusville","state":"PA","zip":"16354","longitude":"-79.701993","latitude":"41.636277","tags":"baked goods crafts flowers eggs herbs vegetables honey jams maple meat plants prepared-foods soap trees fruits juices pet food wild"},{"type":"market","name":"Treasure Lake Farmers Market and Artisan Faire","website":"","facebook":"","twitter":"","street":"95 Coral Reef","city":"DuBois","state":"PA","zip":"15801","longitude":"-78.704999","latitude":"41.201813","tags":"baked goods cheese crafts flowers eggs herbs vegetables honey jams maple meat nuts plants poultry prepared-foods soap wine coffee fruits pet food"},{"type":"market","name":"University Square Farmers' Market","website":"http://www.farmtocitymarkets.com","facebook":"https://www.facebook.com/FarmToCity","twitter":"","street":"3600 Walnut Street","city":"Philadelphia","state":"PA","zip":"19104","longitude":"-75.194883","latitude":"39.953276","tags":"baked goods eggs vegetables honey jams plants prepared-foods fruits"},{"type":"market","name":"Wayne County Farmers Market","website":"","facebook":"","twitter":"","street":"200 Willow Avenue","city":"Honesdale ","state":"PA","zip":"18431","longitude":"-75.251749","latitude":"41.567023","tags":"organic baked goods crafts flowers eggs herbs vegetables honey jams maple plants poultry soap fruits mushrooms"},{"type":"market","name":"Waynesburg Farmers' Market","website":"http://waynesbugpa.org","facebook":"https://www.facebook.com/Waynesburg-Farmers-Market-236396956398280/","twitter":"","street":"High Street ","city":"Waynesburg","state":"PA","zip":"15370","longitude":"-80.186112","latitude":"39.896462","tags":"baked goods flowers vegetables honey jams maple plants prepared-foods soap wine fruits"},{"type":"market","name":"Wednesday, Indiana County Farmers' Market","website":"https://indianafarmmarket.blogspot.com/","facebook":"https://www.facebook.com/indianafarmmarket/","twitter":"","street":"Wayne Avenue & Hospital Rd","city":"Indiana","state":"PA","zip":"15701","longitude":"-79.159344","latitude":"40.610507","tags":"baked goods eggs vegetables honey jams maple poultry soap fruits"},{"type":"market","name":"Wilkinsburg Thursday Open Market","website":"http://wilkinsburgchamber.com","facebook":"","twitter":"","street":"225 Penn Avenue","city":"Wilkinsburg","state":"PA","zip":"15221","longitude":"-79.890864","latitude":"40.445948","tags":"baked goods flowers eggs vegetables honey jams prepared-foods soap wine fruits"},{"type":"market","name":"Wrightstown Farmers Market","website":"http://www.wrightstownfarmersmarket.org","facebook":"https://www.facebook.com/WrightstownFarmersMarket","twitter":"https://twitter.com/WRmarket","street":"Middletown Grange 576 Penns Park Road","city":"Wrightstown (use Newtown for GPS)","state":"PA","zip":"18940","longitude":"-75.106815","latitude":"40.3368710","tags":"organic baked goods cheese crafts flowers eggs herbs vegetables honey jams maple meat nuts plants poultry prepared-foods soap wine coffee fruits grains juices mushrooms pet food wild"},{"type":"market","name":"Yardlet Farmers Market - Indoor Winter Market","website":"http://www.yardleyfarmersmarket.com","facebook":"https://www.facebook.com/YardleyFarmersMarket/","twitter":"https://twitter.com/yardleyfarmmart","street":"65 N. Main St.","city":"Yardley borough","state":"PA","zip":"19067","longitude":"-74.841627","latitude":"40.243417","tags":"organic baked goods cheese crafts flowers eggs vegetables honey jams meat poultry prepared-foods soap coffee fruits juices mushrooms wild"},{"type":"market","name":"Yardley Farmers Market","website":"http://yardleyfarmersmarket.com/","facebook":"https://www.facebook.com/YardleyFarmersMarket/","twitter":"https://twitter.com/yardleyfarmmart","street":"Buttonwood Drive, Buttonwood Park","city":"Yardley borough","state":"PA","zip":"19067","longitude":"-74.839997","latitude":"40.240829","tags":"baked goods cheese crafts flowers eggs herbs vegetables honey jams meat plants poultry prepared-foods soap coffee fruits juices mushrooms pet food wild"},{"type":"market","name":"Zelienople-Harmony Farmer's Market","website":"","facebook":"https://www.facebook.com/ZelieHarmonyFarmersMarket/","twitter":"","street":"Beaver Street and South Division Street","city":"Zelienople","state":"PA","zip":"16063","longitude":"-80.130181","latitude":"40.792698","tags":"baked goods crafts flowers eggs vegetables honey jams meat plants poultry prepared-foods soap wine fruits juices pet food"}]
