[{"type":"farm","street":"3275 Cold Springs Road","city":"Baldwinsville","state":"NY","zip":"13027","longitude":"-76.281483","latitude":"43.144523","name":"Abbott Farms","website":"abbottfarms.com","facebook":"abbottfarmsny","twitter":"","tags":"baked-goods canned preserved coffee tea dairy products dry beans eggs herbs fresh-fruits fresh-vegetables grains flour honey juices ciders maple-products nuts prepared-foods red-meat non-poultry-meat soap body-care"},{"type":"farm","street":"1109 Drum Street","city":"Hogansburg","state":"NY","zip":"13655","longitude":"-74.593024","latitude":"44.988345","name":"AMERICAN INDIAN Gray's Homestead Farm","website":"","facebook":"https://www.facebook.com/grayshomesteadfarm/","twitter":"","tags":"baked-goods canned preserved coffee tea dairy products eggs herbs fresh-fruits fresh-vegetables honey maple-products soap body-care wild-harvested forest-products"},{"type":"farm","street":"273 Morrill Rd","city":"Canton","state":"NY","zip":"13617","longitude":"-75.044278","latitude":"44.555825","name":"Annies Garlic","website":"www.anniesgarlic.com","facebook":"www.facebook.com/anniesgarlic","twitter":"","tags":""},{"type":"farm","street":"810 Broadway Rt. 9W","city":"Ulster Park","state":"NY","zip":"12487","longitude":"-73.9695269","latitude":"41.8467297","name":"Apple Bin Farm Market","website":"www.theapplebinfarmmarket.com","facebook":"Apple Bun Farm Market","twitter":"","tags":"baked-goods bedding plants canned preserved coffee tea dairy products eggs herbs fresh-fruits fresh-vegetables honey juices ciders maple-products nursery-stock nuts prepared-foods soap body-care"},{"type":"farm","street":"1319 Sacandaga Rd","city":"West Charlton","state":"NY","zip":"12010","longitude":"-74.029509","latitude":"42.971771","name":"Arnold's Farm Fresh Produce","website":"www.arnoldsproduce.com","facebook":"","twitter":"","tags":"baked-goods canned preserved coffee tea crafts woodworking cut-flowers dairy products herbs fresh-fruits fresh-vegetables honey maple-products nuts red-meat non-poultry-meat soap body-care"},{"type":"farm","street":"685 Argersinger Rd","city":"Fultonviille","state":"NY","zip":"12072","longitude":"-74.393467","latitude":"42.902931","name":"Bellinger's Orchard","website":"www.bellingersorchard.com","facebook":"https://www.facebook.com/pages/Bellingers-Orchard/117953028227463","twitter":"https://twitter.com/Bellingersapple","tags":"baked-goods canned preserved dairy products fresh-fruits fresh-vegetables honey"},{"type":"farm","street":"10628 Roberts Road","city":"Frankfort","state":"NY","zip":"13340","longitude":"-75.192754","latitude":"43.00074","name":"Brick House Acres - Greenhouse & Berry Farm","website":"","facebook":"","twitter":"","tags":""},{"type":"farm","street":"106 Norman Rd","city":"Rochester","state":"NY","zip":"14623","longitude":"-77.639933","latitude":"43.112030","name":"Brighton Honey","website":"https://www.brightonhoney.com/","facebook":"https://www.facebook.com/brightonhoney","twitter":"https://twitter.com/brightonhoney","tags":"honey"},{"type":"farm","street":"62 Dover Furnace Rd","city":"Dover Plains","state":"NY","zip":"12522","longitude":"-73.579068","latitude":"41.684239","name":"Brookby Farm","website":"https://www.brookbyfarm.com/","facebook":"https://www.facebook.com/BrookbyFarm/","twitter":"","tags":"baked-goods bedding plants canned preserved coffee tea dairy products dry beans eggs herbs fresh-vegetables grains flour honey juices ciders maple-products mushrooms nuts poultry fowl prepared-foods red-meat non-poultry-meat soap body-care"},{"type":"farm","street":"113 Station Road","city":"Campbell Hall","state":"NY","zip":"10916","longitude":"-74.2139200","latitude":"41.4695350","name":"C. Rowe & Sons","website":"","facebook":"","twitter":"","tags":"fresh-fruits fresh-vegetables grains flour"},{"type":"farm","street":"9256 River Road","city":"Marcy","state":"NY","zip":"13403","longitude":"-75.2756664","latitude":"43.1382071","name":"Candellas Farm","website":"www.candellasfarm.com","facebook":"https://www.facebook.com/pages/Candellas-Farm-Marcy-You-Pick-Strawberries/110272999063769","twitter":"","tags":"bedding plants fresh-fruits fresh-vegetables honey maple-products"},{"type":"farm","street":"96 Laurel Bank Ave","city":"Deposit","state":"NY","zip":"13754","longitude":"-75.407016","latitude":"42.066716","name":"Catskill Cattle Co. - Catskill Fresh Farmstand","website":"http://www.catskillfresh.com","facebook":"http://www.facebook.com/catskillcattle.com","twitter":"","tags":"baked-goods bedding plants canned preserved eggs herbs fresh-fruits fresh-vegetables honey maple-products pet-food poultry fowl"},{"type":"farm","street":"176 Leedsville Rd","city":"Amenia","state":"NY","zip":"12501","longitude":"-73.5112340","latitude":"41.8325419","name":"Cedar Hill Farm","website":"","facebook":"","twitter":"","tags":"red-meat non-poultry-meat"},{"type":"farm","street":"3013 Hardscrabble Rd","city":"Erieville","state":"NY","zip":"13061","longitude":"-75.796473","latitude":"42.882918","name":"Cedar Swamp Homestead","website":"cedarswamphomestead.com","facebook":"www.facebook.com/cedarswamphomestead","twitter":"","tags":"eggs fresh-fruits fresh-vegetables"},{"type":"farm","street":"247 County Road 20","city":"Sherburne","state":"NY","zip":"13460","longitude":"-75.546679","latitude":"42.648135","name":"Cook's Maple Products","website":"http://www.cooksmaple.com","facebook":"http://www.facebook.com/cooksmaple","twitter":"http://www.twitter.com/cooksmaple","tags":"maple-products"},{"type":"farm","street":"Danforth Jersey Farm, 157 Danforth Road","city":"Jefferson","state":"NY","zip":"12093","longitude":"-74.5707210","latitude":"42.4952520","name":"Cowbella Creamery at Danforth Jersey Farm","website":"www.cowbella.com","facebook":"https://www.facebook.com/cowbella","twitter":"","tags":"dairy products"},{"type":"farm","street":"13971 route 62","city":"collins","state":"NY","zip":"14034","longitude":"-78.9284790","latitude":"42.4986310","name":"Creekside Market","website":"http://www.creeksideproduce.com/","facebook":"https://www.facebook.com/CreeksideMarketCollins/?ref=aymt_homepage_panel","twitter":"","tags":"bedding plants canned preserved cut-flowers herbs fresh-fruits fresh-vegetables honey maple-products"},{"type":"farm","street":"3232 Rippleton Road","city":"Cazenovia","state":"NY","zip":"13035","longitude":"-75.871351","latitude":"42.876558","name":"Critz Farms","website":"www.critzfarms.com","facebook":"https://www.facebook.com/pages/Critz-Farms","twitter":"https://www.twitter.com/critzfarms","tags":"canned preserved cut-flowers dairy products fresh-fruits honey juices ciders maple-products prepared-foods wine spirits beer hard-cider"},{"type":"farm","street":"189 East High Street","city":"Ballston Spa","state":"NY","zip":"12020","longitude":"-73.832763","latitude":"43.002172","name":"Dakota Ridge Farm","website":"www.dakotaridgefarm.com","facebook":"https://www.facebook.com/DakotaRidgeFarm","twitter":"https://twitter.com/DakotaRidgeFarm","tags":"crafts woodworking"},{"type":"farm","street":"8083 State Hwy 5","city":"St. Johnsville","state":"NY","zip":"13452","longitude":"-74.725050","latitude":"43.004559","name":"Damin Farm","website":"","facebook":"","twitter":"","tags":"canned preserved dairy products eggs herbs fresh-fruits fresh-vegetables honey maple-products nuts poultry fowl red-meat non-poultry-meat"},{"type":"farm","street":"7745 Hill Road ","city":"Hubbardsville ","state":"NY","zip":"13355","longitude":"-75.483456","latitude":"42.829149","name":"Dart's Tree Farm ","website":"","facebook":"https://www.facebook.com/dartstreefarm","twitter":"","tags":"nursery-stock"},{"type":"farm","street":"157 Indian Lake Road","city":"Millerton","state":"NY","zip":"12546","longitude":"-73.5177530","latitude":"41.9143410","name":"Dashing Star Farm","website":"dashingstarfarm.com","facebook":"https://www.facebook.com/dashingstarfarm","twitter":"","tags":"eggs poultry fowl red-meat non-poultry-meat"},{"type":"farm","street":"3823 Sanderson Road","city":"Erieville","state":"NY","zip":"13061","longitude":"-75.744191","latitude":"42.839187","name":"Dizzy Lizzie's Farm","website":"www.dizzylizziesfarm@gmail.com","facebook":"https://www.facebook.com/dizzylizziesfarm?ref=hl","twitter":"","tags":"bedding plants cut-flowers dry beans eggs herbs fresh-fruits fresh-vegetables maple-products"},{"type":"farm","street":"271 State Route 208","city":"New Paltz","state":"NY","zip":"12561","longitude":"-74.1111720","latitude":"41.7146100","name":"Dressel Farms","website":"http://www.dresselfarms.com/","facebook":"https://www.facebook.com/dresselfarms/","twitter":"","tags":"fresh-fruits fresh-vegetables honey juices ciders maple-products"},{"type":"farm","street":"832 Merrick Ave","city":"East Meadow","state":"NY","zip":"11554","longitude":"-73.567670","latitude":"40.700695","name":"East Meadow Farm - CCE of Nassau County","website":"http://ccenassau.org/","facebook":"https://www.facebook.com/EastMeadowFarmStand/","twitter":"","tags":"baked-goods canned preserved cut-flowers eggs fresh-fruits fresh-vegetables honey maple-products"},{"type":"farm","street":"348 Angola Road","city":"Cornwall","state":"NY","zip":"12518","longitude":"-74.054181","latitude":"41.414519","name":"Edgwick Farm","website":"","facebook":"https://www.facebook.com/edgwickfarm","twitter":"","tags":"dairy products eggs"},{"type":"farm","street":" 55 Long Lane (EECO Farm Stand)","city":"East Hampton","state":"NY","zip":"11937","longitude":"-72.207546","latitude":"40.970660","name":"Food Pantry Farm, Inc. @ the EECO Farm Stand","website":"www.foodpantryfarm.org","facebook":"www.facebook.com/FoodPantryFarm","twitter":"","tags":"baked-goods canned preserved cut-flowers dairy products eggs herbs fresh-fruits fresh-vegetables honey juices ciders mushrooms prepared-foods"},{"type":"farm","street":"54 Steves Lane","city":"Gardiner","state":"NY","zip":"12525","longitude":"-74.1502860","latitude":"41.6953480","name":"Full Moon Farm","website":"http://www.fullmoonfarmny.com/","facebook":"https://www.facebook.com/fullmoonfarmny","twitter":"","tags":"poultry fowl"},{"type":"farm","street":"825 Atlantic Avenue","city":"Walworth","state":"NY","zip":"14568","longitude":"-77.338466","latitude":"43.165420","name":"G and S Orchards","website":"http://www.gandsorchards.com","facebook":"https://www.facebook.com/YouPickFruit","twitter":"https://www.twitter.com/GandSOrchards","tags":"cut-flowers herbs fresh-fruits fresh-vegetables honey"},{"type":"farm","street":"6147 Gillie Brook Road","city":"Memphis","state":"NY","zip":"13112","longitude":"-76.352603","latitude":"43.073066","name":"Gillie Brook Farm","website":"www.gilliefarms.com","facebook":"","twitter":"","tags":"fresh-vegetables"},{"type":"farm","street":"2110 Tower Road","city":"Cortland","state":"NY","zip":"13045","longitude":"-76.137209","latitude":"42.554060","name":"Halls Hill Blueberry Farm","website":"www.hallshillblueberryfarm.com","facebook":"","twitter":"","tags":""},{"type":"farm","street":"13054 Ira Station rd","city":"Martville","state":"NY","zip":"13111","longitude":"-76.611156","latitude":"43.251306","name":"Happy Hooves Organic Farm","website":"http://betterbeef4u.com/","facebook":"https://www.facebook.com/HappyHoovesOrganicFarm/","twitter":"","tags":"baked-goods canned preserved eggs honey pet-food poultry fowl red-meat non-poultry-meat soap body-care"},{"type":"farm","street":"273 Randall Road","city":"Waddington","state":"NY","zip":"13658","longitude":"-75.238035","latitude":"44.803357","name":"Harmony Farm Apiary","website":"http://www.harmonyfarm.net","facebook":"","twitter":"","tags":"honey"},{"type":"farm","street":"327 County Route 21C","city":"Ghent","state":"NY","zip":"12075","longitude":"-73.5947470","latitude":"42.2706611","name":"Hawthorne Valley Farm Store","website":"http://hawthornevalleyfarm.org/where-to-buy/farm-store/","facebook":"Hawthorne Valley Farm Store","twitter":"","tags":"baked-goods bedding plants canned preserved coffee tea dairy products dry beans eggs herbs fresh-fruits fresh-vegetables grains flour honey juices ciders maple-products mushrooms nuts pet-food poultry fowl prepared-foods red-meat non-poultry-meat soap body-care tofu non-animal protein"},{"type":"farm","street":"7161 West Rd","city":"Lowville","state":"NY","zip":"13367","longitude":"-75.5214759","latitude":"43.7639003","name":"Herrdale Acres Grassfed Beef","website":"www.herrdaleacres.com","facebook":"herrdale acres","twitter":"","tags":""},{"type":"farm","street":"9947 Evans Road","city":"Remsen","state":"NY","zip":"13438","longitude":"-75.2208138","latitude":"43.3457168","name":"Heywoodss Blueberries","website":"heywoodsblueberries.com","facebook":"https://www.facebook.com/pages/Heywoods-Blueberries/269549785195?sk=timeline","twitter":"","tags":""},{"type":"farm","street":"","city":"Fort Edward","state":"NY","zip":"12828","longitude":"-73.519735","latitude":"43.281767","name":"Hidden Nest Farm","website":"https://www.hiddennestfarm.com","facebook":"https://www.facebook.com/hiddennestfarm","twitter":"","tags":"eggs poultry fowl red-meat non-poultry-meat"},{"type":"farm","street":"1271 Hanover Street","city":"Yorktown Heights","state":"NY","zip":"10598","longitude":"-73.774207","latitude":"41.252254","name":"Hilltop Hanover Farm & Environmental Center","website":"www.hilltophanoverfarm.org","facebook":"https://www.facebook.com/hilltophanoverfarm/","twitter":"https://twitter.com/friendsofhhfarm","tags":"baked-goods coffee tea cut-flowers dry beans eggs fresh-vegetables grains flour honey maple-products"},{"type":"farm","street":"1250 Kinderhook Rd ","city":"Chittenango","state":"NY","zip":"13037","longitude":"-75.913081","latitude":"43.064624","name":"Honey Hill Orchard & Apiaries","website":"","facebook":"Honey Hill Orchard & Apiary","twitter":"","tags":"fresh-fruits honey"},{"type":"farm","street":"7971 Vallance Rd.","city":"LeRoy","state":"NY","zip":"14482","longitude":"-77.960827","latitude":"43.034078","name":"J&W Farm","website":"","facebook":"","twitter":"","tags":"cut-flowers fresh-fruits fresh-vegetables"},{"type":"farm","street":"507 Broadway","city":"Kingston","state":"NY","zip":"12401","longitude":"-74.0012350","latitude":"41.9276140","name":"Kingston YMCA Farm Project","website":"kingstonymcafarmproject.org","facebook":"https://www.facebook.com/KingstonYMCAFarmProject","twitter":"","tags":"cut-flowers herbs fresh-fruits fresh-vegetables"},{"type":"farm","street":"1417 Sawyer Rd","city":"Kent","state":"NY","zip":"14477","longitude":"-78.1576730","latitude":"43.3466830","name":"Lee Farms","website":"","facebook":"https://www.facebook.com/Lee.Farms.Organic.Beef?ref=hl","twitter":"","tags":"eggs fresh-vegetables red-meat non-poultry-meat"},{"type":"farm","street":"5288 Gasport Rd","city":"Gasport","state":"NY","zip":"14067","longitude":"-78.5778000","latitude":"43.1564310","name":"Librock Beef","website":"www.librockbeef.com","facebook":"https://www.facebook.com/pages/Librock-Beef/356668141060191","twitter":"","tags":""},{"type":"farm","street":"1682 West Lake Road","city":"Skaneateles","state":"NY","zip":"13152","longitude":"-76.393362","latitude":"42.853001","name":"Lockwood Lavender Farm","website":"","facebook":"https://www.facebook.com/lockwoodlavenderfarm","twitter":"","tags":"herbs honey"},{"type":"farm","street":"573 Meeting House Road","city":"West Winfield","state":"NY","zip":"13491","longitude":"-75.165333","latitude":"42.914275","name":"Loiacono Farm","website":"","facebook":"","twitter":"","tags":"fresh-fruits fresh-vegetables"},{"type":"farm","street":"10569 County Route 92","city":"Wayland","state":"NY","zip":"14572","longitude":"-77.569955","latitude":"42.513065","name":"Loon Lake Organics","website":"","facebook":"Loon Lake Organics","twitter":"","tags":"fresh-fruits fresh-vegetables"},{"type":"farm","street":"68 Prices Switch Road","city":"Warwick","state":"NY","zip":"10990","longitude":"-74.460853","latitude":"41.260494","name":"Lowland Farm","website":"www.lowlandfarm.com/","facebook":"https://www.facebook.com/lowlandfarm","twitter":"","tags":"poultry fowl"},{"type":"farm","street":"Little Ghent Farm, 282 Snyder Road","city":"Ghent","state":"NY","zip":"12075","longitude":"-73.643255","latitude":"42.330964","name":"Made in Ghent","website":"www.madeinghent.com","facebook":"Made in Ghent","twitter":"https://www.twitter.com/madeinghent","tags":"poultry fowl prepared-foods red-meat non-poultry-meat"},{"type":"farm","street":"7342 Main Street, State Route 28","city":"Newport","state":"NY","zip":"13416","longitude":"-75.010097","latitude":"43.180348","name":"MAWS Farm","website":"www.MAWSFarm.com","facebook":"https://www.facebook.com/MAWSFarm","twitter":"","tags":"baked-goods bedding plants canned preserved crafts woodworking cut-flowers eggs herbs fresh-fruits fresh-vegetables honey poultry fowl red-meat non-poultry-meat"},{"type":"farm","street":"19830 Eddy Road","city":"Carthage","state":"NY","zip":"13619","longitude":"-75.740696","latitude":"43.954667","name":"Mill Creek Farm","website":"","facebook":"","twitter":"","tags":""},{"type":"farm","street":"3655 Cherry Valley Tpk. (rt.20)","city":"Syracuse","state":"NY","zip":"13215","longitude":"-76.236325","latitude":"42.986208","name":"Navarino Orchard","website":"navarinoorchard.com","facebook":"https://www.facebook.com/pages/Navarino-Orchard/94081824018","twitter":"","tags":""},{"type":"farm","street":"5486 South Livonia Road","city":"Conesus Lake ","state":"NY","zip":"14435","longitude":"-77.672284","latitude":"42.754630","name":"Olde Silo Farm","website":"","facebook":"oldesilofarm1@gmail.com","twitter":"","tags":"cut-flowers herbs fresh-fruits fresh-vegetables honey"},{"type":"farm","street":"7735 State Route 104","city":"Oswego","state":"NY","zip":"13126","longitude":"-76.5775130","latitude":"43.4098990","name":"Ontario Orchards","website":"ontarioorchards.com","facebook":"ontaroorchards","twitter":"","tags":"baked-goods bedding plants canned preserved coffee tea crafts woodworking cut-flowers dairy products dry beans eggs fish seafood herbs fresh-fruits fresh-vegetables grains flour honey juices ciders maple-products mushrooms nursery-stock nuts pet-food poultry fowl red-meat non-poultry-meat wine spirits beer hard-cider"},{"type":"farm","street":"1220 W. Genesee Road","city":"Baldwinsville","state":"NY","zip":"13027","longitude":"-76.415148","latitude":"43.165342","name":"Reeves Farms","website":"www.reevesfarms.com","facebook":"https://www.facebook.com/reevesfarmsllc","twitter":"","tags":""},{"type":"farm","street":"1925 Rt. 73","city":"Keene Valley","state":"NY","zip":"12943","longitude":"-73.786625","latitude":"44.199360","name":"Rivermede Farm Market","website":"rivermedefarm.com","facebook":"","twitter":"","tags":"baked-goods bedding plants canned preserved coffee tea crafts woodworking cut-flowers dairy products eggs herbs fresh-fruits fresh-vegetables honey juices ciders maple-products mushrooms nuts poultry fowl prepared-foods red-meat non-poultry-meat soap body-care"},{"type":"farm","street":"3736 Apulia Road","city":"Jamesville","state":"NY","zip":"13078","longitude":"-76.068845","latitude":"42.952424","name":"Rocking Horse Farm","website":"www.rockinghorsefarmcny.com","facebook":"Rocking Horse Farm","twitter":"","tags":"honey maple-products"},{"type":"farm","street":"151 Hadsell rd","city":"Warnerville ","state":"NY","zip":"12187","longitude":"-74.511437","latitude":"42.643584","name":"Rocks and Roots Farm LLC","website":"","facebook":"","twitter":"","tags":"dairy products fresh-vegetables honey mushrooms wild-harvested forest-products"},{"type":"farm","street":"29 Old Barrington Road","city":"Hollowville","state":"NY","zip":"12530","longitude":"-73.660002","latitude":"42.215512","name":"Scarecrow Farm","website":"www.scarecrowfarmny.com","facebook":"https://www.facebook.com/pages/Scarecrow-Farm","twitter":"","tags":"baked-goods canned preserved crafts woodworking eggs herbs fresh-vegetables honey"},{"type":"farm","street":"200 Creamery Road","city":"Brooktondale","state":"NY","zip":"14817","longitude":"-76.352390","latitude":"42.380125","name":"Shelterbelt Farm","website":"http://www.shelterbeltfarm.com","facebook":"https://www.facebook.com/ShelterbeltFarm","twitter":"","tags":"honey poultry fowl red-meat non-poultry-meat"},{"type":"farm","street":"34 Lauer Road","city":"Poughkeepsie","state":"NY","zip":"12603","longitude":"-73.8148002","latitude":"41.6598912","name":"Sprout Creek Farm","website":"www.sproutcreekfarm.org","facebook":"www.facebook.com/sproutcreekfarm","twitter":"www.twitter.com/sproutcreekfarm","tags":"baked-goods canned preserved dairy products eggs honey maple-products poultry fowl red-meat non-poultry-meat"},{"type":"farm","street":"County Route 100","city":"Woodhull","state":"NY","zip":"14898","longitude":"-77.408089","latitude":"42.038941","name":"Steamy Farms","website":"","facebook":"facebook.com/SteamyFarms","twitter":"","tags":"eggs honey poultry fowl red-meat non-poultry-meat"},{"type":"farm","street":"656 South Road","city":"Scottsville","state":"NY","zip":"14546","longitude":"-77.773829","latitude":"42.992039","name":"Stokoe Farms","website":"stokoefarms.com","facebook":"https://www.facebook.com/stokoefarm","twitter":"","tags":"baked-goods canned preserved coffee tea crafts woodworking honey juices ciders maple-products prepared-foods soap body-care"},{"type":"farm","street":"143 Strackville Road","city":"Schuyler Falls","state":"NY","zip":"12985","longitude":"-73.6887698","latitude":"44.5976053","name":"Stonebeck Farm","website":"http://stonebeckfarm.blogspot.com/","facebook":"https://www.facebook.com/pages/Stonebeck-Farm/203077556515064","twitter":"","tags":""},{"type":"farm","street":"160 Bixby rd","city":"Erin","state":"NY","zip":"14838","longitude":"-76.6685290","latitude":"42.1597360","name":"Stoneyridge Orchard & Winery LLC","website":"www.stoneyridgeorchard.com","facebook":"stoneyridgeorchard","twitter":"","tags":"baked-goods canned preserved crafts woodworking fresh-fruits fresh-vegetables honey juices ciders wine spirits beer hard-cider"},{"type":"farm","street":"11205 west Shelby Rd","city":"Medina","state":"NY","zip":"14103","longitude":"-78.3978140","latitude":"43.1652420","name":"Teasel Meadow Farms","website":"www.teaselmeadowfarms.com","facebook":"https://www.facebook.com/pages/Teasel-Meadow-Farms/246518425811","twitter":"","tags":"red-meat non-poultry-meat"},{"type":"farm","street":"3391 Fairville Maple Ridge Rd.","city":"Newark","state":"NY","zip":"14513","longitude":"-77.0979550","latitude":"43.1292743","name":"The Apple Shed","website":"www.theappleshed.com","facebook":"www.facebook.com/theappleshed","twitter":"www.twitter.com/theappleshed.com","tags":"baked-goods canned preserved coffee tea dairy products fresh-fruits fresh-vegetables honey juices ciders maple-products prepared-foods"},{"type":"farm","street":"35796 State Highway 10","city":"Hamden","state":"NY","zip":"13782","longitude":"-74.994065","latitude":"42.191338","name":"The Lucky Dog Farm Store and Cafe","website":"http://www.luckydogorganic.com/","facebook":"https://www.facebook.com/Lucky.Dog.Farm.And.Store?ref=bookmarks","twitter":"","tags":"baked-goods canned preserved coffee tea crafts woodworking dairy products dry beans eggs fish seafood herbs fresh-fruits fresh-vegetables grains flour honey juices ciders maple-products mushrooms nuts pet-food poultry fowl prepared-foods red-meat non-poultry-meat soap body-care tofu non-animal protein wild-harvested forest-products wine spirits beer hard-cider"},{"type":"farm","street":"329 Underhill Ave","city":"Yorktown Heights","state":"NY","zip":"10598","longitude":"-73.780818","latitude":"41.268860","name":"The Meadows Farm","website":"Meadowsfarmmarket.com","facebook":"","twitter":"","tags":""},{"type":"farm","street":"2 So. Mountain Rd ","city":"Pomona","state":"NY","zip":"10970","longitude":"-74.0320457","latitude":"41.1786064","name":"The Orchards Of Concklin","website":"http://theorchardsofconcklin.com","facebook":"https://www.facebook.com/pages/The-Orchards-of-Concklin/111163468897423","twitter":"","tags":"baked-goods bedding plants canned preserved coffee tea cut-flowers dairy products dry beans eggs herbs fresh-fruits fresh-vegetables honey juices ciders maple-products nuts"},{"type":"farm","street":"538 Route 343","city":"Millbrook","state":"NY","zip":"12545","longitude":"-73.651539","latitude":"41.775037","name":"Walbridge Farm Market","website":"walbridgefarm.com","facebook":"https://www.facebook.com/walbridgefarmmarket","twitter":"","tags":"baked-goods canned preserved dairy products eggs fresh-fruits fresh-vegetables honey juices ciders maple-products poultry fowl red-meat non-poultry-meat"},{"type":"farm","street":"656 Minots Corner Rd","city":"Frankfort","state":"NY","zip":"13340","longitude":"-75.048407","latitude":"43.102139","name":"Windecker's Grassy Knoll Beef","website":"www.windeckerfarm.com","facebook":"","twitter":"","tags":"red-meat non-poultry-meat"},{"type":"farm","street":"431 Seebers Lane","city":"Canajoharie","state":"NY","zip":"13317","longitude":"-74.611932","latitude":"42.899915","name":"Wrong Direction Farm","website":"wrongdirectionfarm.com","facebook":"","twitter":"","tags":"dairy products maple-products poultry fowl red-meat non-poultry-meat"},{"type":"market","name":"Alexandria Bay Farmers Market","website":"http://www.visitalexbay.org","facebook":"https://www.facebook.com/pages/Alexandria-Bay-Chamber-of-Commerce/82504121853","twitter":"","street":"Route 12","city":"Alexandria Bay","state":"NY","zip":"13607","longitude":"-75.916118","latitude":"44.331171","tags":"baked goods crafts vegetables honey jams maple plants wine fruits"},{"type":"market","name":"Aurora Farmers Market","website":"","facebook":"","twitter":"","street":"170 Main Street","city":"Aurora","state":"NY","zip":"13026","longitude":"-76.699995","latitude":"42.744684","tags":"baked goods crafts flowers eggs vegetables honey jams maple nuts plants prepared-foods soap coffee fruits wild"},{"type":"market","name":"Belmont Farmers Market","website":"","facebook":"Belmont Farmers Market","twitter":"","street":"5429 State Route 19N","city":"Belmont","state":"NY","zip":"14813","longitude":"-78.053508","latitude":"42.234077","tags":"baked goods crafts flowers eggs herbs vegetables honey jams maple meat plants soap fruits"},{"type":"market","name":"Broome County Regional Farmers Market","website":"http://www.broomecountyregionalmarket.com","facebook":"Broome County Regional Farmers Market","twitter":"","street":"840 Upper Front St","city":"Binghamton","state":"NY","zip":"13905","longitude":"-75.904648","latitude":"42.129759","tags":"organic baked goods cheese crafts flowers eggs seafood herbs vegetables honey jams maple plants poultry prepared-foods soap trees wine coffee fruits mushrooms pet food wild"},{"type":"market","name":"Canal Village Farmers' Market","website":"","facebook":"Canal Village Farmers' Market","twitter":"","street":"127 West Center Street","city":"Medina","state":"NY","zip":"14103","longitude":"-78.388368","latitude":"43.220102","tags":"baked goods crafts eggs herbs vegetables jams meat plants poultry prepared-foods soap wine fruits"},{"type":"market","name":"Clarence Hollow Farmers' Market","website":"http://www.clarencefarmersmarket.com","facebook":"https://www.facebook.com/clarencehollowfm","twitter":"","street":"New Town lot, 10717 Main St. (route 5)","city":"Clarence","state":"NY","zip":"14031","longitude":"-78.58945","latitude":"42.98032","tags":"baked goods cheese crafts flowers eggs herbs vegetables honey jams maple meat plants poultry prepared-foods soap trees wine coffee fruits juices pet food"},{"type":"market","name":"Clifton Park Farmers' Market","website":"http://www.saratogafarmersmarket.org/clifton-park-farmers-market/","facebook":"https://www.facebook.com/Clifton-Park-Farmers-Market-440138679349915/","twitter":"","street":"971 Route 146, Shenendehowa United Methodist Church parking lot ","city":"Clifton Park","state":"NY","zip":"12065","longitude":"-73.809271","latitude":"42.869606","tags":"baked goods flowers eggs vegetables honey jams maple meat prepared-foods fruits juices"},{"type":"market","name":"Clinton Farmers Market","website":"https://clintonnychamber.org/farmers-market/","facebook":"https://www.facebook.com/ClintonNYFarmersMarket/","twitter":"","street":"20 West Park Row","city":"Clinton","state":"NY","zip":"13323","longitude":"-75.378462","latitude":"43.048866","tags":"organic baked goods cheese crafts flowers eggs herbs vegetables honey jams maple meat nuts plants poultry prepared-foods soap trees coffee beans fruits mushrooms pet food wild"},{"type":"market","name":"Delmar Farmers Market","website":"http://delmarmarket.org","facebook":"delmarmarket","twitter":"@delmarmarket","street":"332 Kenwood Ave","city":"Delmar","state":"NY","zip":"12054","longitude":"-73.825895","latitude":"42.619919","tags":"organic baked goods cheese crafts flowers eggs seafood herbs vegetables maple meat plants poultry prepared-foods soap trees wine coffee fruits grains mushrooms pet food"},{"type":"market","name":"Down to Earth Chelsea Farmers Market ","website":"","facebook":"https://www.facebook.com/chelseanycfarmersmarket","twitter":"https://twitter.com/DowntoEarthMkts","street":"W. 23rd Street off 9th Avenue","city":"New York","state":"NY","zip":"10011","longitude":"-74.000805","latitude":"40.746359","tags":"organic baked goods cheese flowers eggs seafood herbs vegetables honey jams maple meat nuts plants poultry prepared-foods wine coffee beans fruits grains juices mushrooms tofu"},{"type":"market","name":"Down to Earth Cunningham Park Farmers Market","website":"https://downtoearthmarkets.com/","facebook":"https://www.facebook.com/cunninghamparkfarmersmarket","twitter":"","street":"Parking lot off Union Turnpike","city":"Queens","state":"NY","zip":"11366","longitude":"-73.773482","latitude":"40.730800","tags":"organic baked goods cheese flowers eggs seafood herbs vegetables honey jams maple meat plants poultry prepared-foods wine coffee fruits juices mushrooms"},{"type":"market","name":"Down to Earth Larchmont Farmers Market","website":"","facebook":"https://www.facebook.com/larchmontfarmersmarket","twitter":"twitter.com/DowntoEarthMkts","street":"Parking Lot off Chatsworth Ave.","city":"Larchmont","state":"NY","zip":"10538","longitude":"-73.760008","latitude":"40.933512","tags":"organic baked goods cheese crafts flowers eggs seafood herbs vegetables honey jams maple meat nuts plants poultry prepared-foods soap wine coffee beans fruits grains juices mushrooms pet food"},{"type":"market","name":"Down to Earth Mamaroneck Winter Farmers Market","website":"","facebook":"https://www.facebook.com/mamaroneckfarmersmarket","twitter":"https://twitter.com/DowntoEarthMkts","street":"Harbor Island Park","city":"Mamaroneck","state":"NY","zip":"10543","longitude":"-73.730404","latitude":"40.944797","tags":"organic baked goods cheese eggs seafood herbs vegetables honey jams maple meat nuts poultry prepared-foods wine coffee beans fruits grains juices mushrooms"},{"type":"market","name":"Down to Earth McGolrick Park Farmers Market","website":"","facebook":"https://www.facebook.com/mcgolrickparkfarmersmarket","twitter":"https://twitter.com/DowntoEarthMkts","street":"At the center of the park","city":"Brooklyn","state":"NY","zip":"11222","longitude":"-73.943291","latitude":"40.724358","tags":"organic baked goods cheese flowers eggs seafood herbs vegetables honey jams maple meat plants poultry prepared-foods wine coffee fruits juices mushrooms tofu"},{"type":"market","name":"Down to Earth Morningside Park Farmers Market","website":"","facebook":"https://www.facebook.com/morningsideparkfarmersmarket/","twitter":"https://twitter.com/DowntoEarthMkts","street":"110th Street and Manhattan Avenue","city":"Manhattan","state":"NY","zip":"10026","longitude":"-73.959645","latitude":"40.801254","tags":"organic baked goods cheese flowers eggs seafood herbs vegetables honey jams maple meat plants poultry prepared-foods soap wine coffee fruits juices mushrooms"},{"type":"market","name":"Down to Earth New Rochelle Farmers Market","website":"","facebook":"https://www.facebook.com/newrochellefarmersmarket/","twitter":"https://twitter.com/DowntoEarthMkts","street":"Thomas Paine Cottage Museum","city":"New Rochelle","state":"NY","zip":"10804","longitude":"-73.791017","latitude":"40.933570","tags":"organic baked goods flowers eggs seafood herbs vegetables honey jams maple meat nuts plants poultry prepared-foods wine coffee beans fruits grains juices mushrooms"},{"type":"market","name":"Down to Earth Ossining Farmers Market","website":"","facebook":"https://www.facebook.com/ossiningfarmersmarket/","twitter":"https://twitter.com/DowntoEarthMkts","street":"Near the corner of Spring & Main Streets","city":"Ossining","state":"NY","zip":"10562","longitude":"-73.863410","latitude":"41.160793","tags":"organic baked goods cheese crafts flowers eggs seafood herbs vegetables honey jams maple meat nuts plants poultry prepared-foods soap wine coffee beans fruits grains juices mushrooms"},{"type":"market","name":"Down to Earth Park Slope Farmers Market","website":"","facebook":"https://www.facebook.com/parkslopefarmersmarket/","twitter":"https://twitter.com/DowntoEarthMkts","street":"4th Street at 5th Avenue","city":"Park Slope","state":"NY","zip":"11215","longitude":"-73.983867","latitude":"40.672303","tags":"organic baked goods cheese flowers eggs seafood herbs vegetables honey jams maple meat nuts plants poultry prepared-foods soap wine coffee beans fruits grains juices mushrooms tofu wild"},{"type":"market","name":"Down to Earth Queens Botanical Garden Farmers Market","website":"","facebook":"https://www.facebook.com/queensbotanicalfarmersmarket","twitter":"https://twitter.com/DowntoEarthMkts","street":"Dahlia Avenue at Main Street","city":"Queens","state":"NY","zip":"11355","longitude":"-73.826548","latitude":"40.751776","tags":"eggs herbs vegetables honey plants fruits"},{"type":"market","name":"Down to Earth Rye Farmers Market","website":"","facebook":"https://www.facebook.com/ryefarmersmarket","twitter":"twitter.com/DowntoEarthMkts","street":"Parking lot off Theodore Fremd Ave.","city":"Rye","state":"NY","zip":"10580","longitude":"-73.686043","latitude":"40.983895","tags":"organic baked goods cheese crafts flowers eggs seafood herbs vegetables honey jams maple meat nuts plants poultry prepared-foods soap wine coffee beans fruits grains juices mushrooms pet food"},{"type":"market","name":"East Greenbush Library & YMCA Farmers Market","website":"https://eastgreenbushlibrary.org/events-newsletters/farmers-market/","facebook":"https://www.facebook.com/EastGreenbushLibraryYMCAFarmerMarket/","twitter":"@eglibrary","street":"Between 10 and 20 Community Way in parking lot","city":"East Greenbush","state":"NY","zip":"12061","longitude":"-73.695566","latitude":"42.618063","tags":"baked goods cheese eggs vegetables honey jams maple nuts prepared-foods soap trees wine fruits pet food"},{"type":"market","name":"East Side Farmers' Market","website":"http://chemung.cce.cornell.edu/agriculture/buy-local/farmers-markets","facebook":"https://www.facebook.com/EastSideMarketElmiraNY/","twitter":"","street":"760 E Water St Elmira","city":"Elmira","state":"NY","zip":"14901","longitude":"-76.794875","latitude":"42.088757","tags":"baked goods cheese crafts eggs vegetables honey jams maple meat plants poultry prepared-foods soap fruits mushrooms"},{"type":"market","name":"Eastgate Plaza Farmers Market","website":"","facebook":"https://www.facebook.com/EastgatePlazaClarence/","twitter":"","street":"4927 - 5089 Transit Road","city":"Clarence","state":"NY","zip":"14221","longitude":"-78.595325","latitude":"42.97573","tags":"organic baked goods cheese crafts flowers eggs herbs vegetables honey jams maple meat plants poultry prepared-foods soap wine coffee fruits mushrooms pet food tofu"},{"type":"market","name":"Elmwood Bidwell Farmers' Market","website":"http://elmwoodmarket.org","facebook":"ElmwoodBidwellFarmersMarket","twitter":"","street":"Elmwood and Bidwell","city":"Buffalo","state":"NY","zip":"14221","longitude":"-78.877625","latitude":"42.923862","tags":"organic baked goods cheese flowers eggs seafood vegetables honey maple meat plants poultry soap trees wine coffee fruits mushrooms"},{"type":"market","name":"Farm to Preschool Market: Mercy Cares for Kids","website":"http://www.sphp.com/mercy-cares-for-kids","facebook":"","twitter":"","street":"310 S. Manning Blvd","city":"Albany ","state":"NY","zip":"12206","longitude":"-73.798353","latitude":"42.665745","tags":"organic flowers vegetables"},{"type":"market","name":"Festival Farmers Market","website":"","facebook":"","twitter":"","street":"942 Main Street","city":" Cobleskill","state":"NY","zip":"12043","longitude":"-74.4669868","latitude":"42.6792512","tags":"baked goods cheese crafts flowers eggs herbs vegetables honey jams maple meat plants poultry soap fruits"},{"type":"market","name":"Fulton Stall Market - Indoor Farmers Market","website":"http://fultonstallmarket.org","facebook":"fultonmarketnyc","twitter":"fultonmarketnyc","street":"91 South St.","city":"New York ","state":"NY","zip":"10038","longitude":"-74.003474","latitude":"40.706222","tags":"organic baked goods cheese eggs seafood herbs vegetables honey jams maple meat poultry prepared-foods wine coffee fruits grains juices mushrooms pet food"},{"type":"market","name":"Glens Falls Farmers Market Association","website":"https://www.glensfallsfarmersmarket.com/","facebook":"https://www.facebook.com/GFFarmersMarket/","twitter":"","street":"10 Sanford St","city":"Glens Falls","state":"NY","zip":"12801","longitude":"-73.653504","latitude":"43.317546","tags":"organic baked goods cheese crafts eggs seafood herbs vegetables honey jams maple meat poultry prepared-foods soap coffee beans fruits juices mushrooms pet food wild"},{"type":"market","name":"Goshen Farmers Market","website":"http://goshennychamber.com","facebook":"Goshenfarmersmarket","twitter":"","street":"South Church and Main Street","city":"Goshen","state":"NY","zip":"10924","longitude":"-74.322899","latitude":"41.401966","tags":"baked goods cheese eggs seafood herbs vegetables honey jams maple meat plants poultry soap wine coffee fruits mushrooms pet food"},{"type":"market","name":"Grass Roots Farmers Market","website":"","facebook":"Grassroots Farmers Market","twitter":"","street":"W.145th. Street between Edgecombe & Bradhurst Aves.","city":"New York","state":"NY","zip":"10031","longitude":"-73.943475","latitude":"40.823804","tags":"baked goods eggs vegetables honey jams fruits"},{"type":"market","name":"Greater Watertown-North Country Chamber of Commerce Farm & Craft Market","website":"http://www.watertownfarmandcraft.com","facebook":"https://www.facebook.com/watertownfarmandcraft/?ref=br_rs","twitter":"","street":"317 Washington St.","city":"Watertown","state":"NY","zip":"13601","longitude":"-75.9112726897001","latitude":"43.9720956981182","tags":"organic baked goods cheese crafts flowers eggs herbs vegetables honey jams maple meat nuts plants poultry prepared-foods soap trees wine coffee fruits mushrooms pet food"},{"type":"market","name":"Harvest Home 125th Street Market","website":"","facebook":"","twitter":"","street":"W. 125th Street & Adam Clayton Powell Blvd","city":"New York","state":"NY","zip":"","longitude":"-73.947702","latitude":"40.808707","tags":"baked goods vegetables fruits"},{"type":"market","name":"Harvest Home Brower Park Market","website":"http://harvesthomefm.org","facebook":"","twitter":"","street":"Brooklyn Avenue & Prospect Place","city":"New York","state":"NY","zip":"","longitude":"-73.944530","latitude":"40.674043","tags":"vegetables fruits"},{"type":"market","name":"Harvest Home Clinton Hill Market","website":"","facebook":"","twitter":"","street":"Lafayette btwn Waverly & Washington","city":"Brooklyn","state":"NY","zip":"","longitude":"-73.966310","latitude":"40.688145","tags":"vegetables fruits"},{"type":"market","name":"Harvest Home Co-Op City Market","website":"","facebook":"","twitter":"","street":"Asch Loop & Aldrich Street","city":"Bronx","state":"NY","zip":"","longitude":"-73.831007","latitude":"40.870274","tags":"baked goods vegetables honey jams fruits"},{"type":"market","name":"Harvest Home Coney Island Hospital Market","website":"","facebook":"","twitter":"","street":"Ocean Pkwy btwn Shore Pkwy & Avenue Z","city":"New York","state":"NY","zip":"","longitude":"-73.966129","latitude":"40.585510","tags":"baked goods vegetables honey jams maple fruits"},{"type":"market","name":"Harvest Home East Harlem Market","website":"","facebook":"","twitter":"","street":"E. 104th Street & 3rd Avenue","city":"New York","state":"NY","zip":"","longitude":"-73.945625","latitude":"40.790266","tags":"vegetables fruits"},{"type":"market","name":"Harvest Home Harlem Hospital Market","website":"","facebook":"","twitter":"","street":"Lenox Avenue btwn W. 136th & W. 138th Street","city":"New York","state":"NY","zip":"","longitude":"-73.940100","latitude":"40.814968","tags":"baked goods vegetables honey jams maple fruits"},{"type":"market","name":"Harvest Home Hunts Point Market","website":"","facebook":"","twitter":"","street":"E. 163rd btwn Southern & Bruckner Boulevards","city":"New York","state":"NY","zip":"","longitude":"-73.890698","latitude":"40.820779","tags":"vegetables fruits"},{"type":"market","name":"Harvest Home Jacobi Hospital Market","website":"","facebook":"","twitter":"","street":"1400 Pelham Parkway","city":"New York","state":"NY","zip":"","longitude":"-73.846979","latitude":"40.857347","tags":"baked goods vegetables honey jams fruits"},{"type":"market","name":"Harvest Home Kings County Hospital Market","website":"","facebook":"","twitter":"","street":"Clarkson Avenue btwn E. 37th & E. 39th Street","city":"New York","state":"NY","zip":"","longitude":"-73.942520","latitude":"40.655889","tags":"vegetables fruits"},{"type":"market","name":"Harvest Home Lenox Avenue Market","website":"","facebook":"","twitter":"","street":"Lenox Avenue btwn W. 117th & W. 118th Street","city":"New York","state":"NY","zip":"","longitude":"-73.948857","latitude":"40.803029","tags":"vegetables fruits"},{"type":"market","name":"Harvest Home Metropolitan Hospital Market","website":"http://harvesthomefm.org","facebook":"","twitter":"","street":"97-99th Street and 2nd Ave.","city":"Manhattan","state":"NY","zip":"","longitude":"-73.946220","latitude":"40.785539","tags":"baked goods vegetables honey jams prepared-foods coffee fruits"},{"type":"market","name":"Harvest Home Mt. Eden Market","website":"http://www.harvesthomefm.org","facebook":"https://www.facebook.com/HarvestHomeMkts/","twitter":"https://twitter.com/HarvestHomeMkts","street":"Mt. Eden Pkwy & Morris Avenue","city":"Bronx","state":"NY","zip":"","longitude":"-73.909517","latitude":"40.842700","tags":"baked goods vegetables honey jams fruits"},{"type":"market","name":"Harvest Home North Central Bronx Market","website":"","facebook":"","twitter":"","street":"E. Mosholu Pkwy N. & Jerome Avenue","city":"Bronx","state":"NY","zip":"","longitude":"-73.883864","latitude":"40.880479","tags":"baked goods vegetables jams fruits"},{"type":"market","name":"Harvest Home St. Mary's Park Market","website":"","facebook":"","twitter":"","street":"E. 149th Street & Eagle Avenue","city":"New York","state":"NY","zip":"","longitude":"-73.911898","latitude":"40.813850","tags":"vegetables fruits"},{"type":"market","name":"Harvest Home West Harlem Market","website":"","facebook":"","twitter":"","street":"Broadway btwn W. 138th & W. 139th St","city":"New York","state":"NY","zip":"","longitude":"-73.953193","latitude":"40.822369","tags":"vegetables fruits"},{"type":"market","name":"Hudson Farmers Market","website":"http://www.hudsonfarmersmarketny.com","facebook":"https://www.facebook.com/hudson.markt","twitter":"","street":"Corner of Columbia and Sixth Streets","city":"Hudson","state":"NY","zip":"12534","longitude":"-73.7836920","latitude":"42.2486560","tags":"organic baked goods cheese crafts flowers eggs seafood herbs vegetables honey jams maple meat nuts plants poultry prepared-foods soap wine coffee beans fruits grains juices mushrooms wild"},{"type":"market","name":"Indian Lake Community Farmers Market ","website":"","facebook":"Indian Lake Community Farmers Market","twitter":"","street":"144 JOHN RUST RD","city":"INDIAN LAKE","state":"NY","zip":"12842","longitude":"-74.270529","latitude":"43.782397","tags":"organic baked goods cheese crafts flowers eggs herbs vegetables honey jams maple meat nuts plants poultry coffee fruits mushrooms pet food"},{"type":"market","name":"Isabahlia farmers Market","website":"http://Isabahlialoefinc.org","facebook":"Isabahlia ladies of Elegance Foundation Inc","twitter":"Isabahlialoef","street":"410 Livoinia Ave","city":"Brooklyn, NY","state":"NY","zip":"11212","longitude":"-73.901875","latitude":"40.663651","tags":"baked goods flowers eggs vegetables honey jams fruits"},{"type":"market","name":"Kingston Farmers' Market","website":"http://www.kingstonfarmersmarket.org","facebook":"Facebook.com/kingstonfarmersmarket","twitter":"","street":"Wall Street - Uptown Kingston","city":"Kingston","state":"NY","zip":"12402","longitude":"-74.019483","latitude":"41.932986","tags":"organic baked goods cheese crafts flowers eggs seafood herbs vegetables honey jams maple meat nuts plants poultry prepared-foods soap trees wine coffee fruits grains juices mushrooms pet food wild"},{"type":"market","name":"La Familia Verde Farmers Market","website":"http://www.lafamiliaverde.org","facebook":"","twitter":"","street":"East Tremont Ave. between Lafontaine Ave& Arthue Ave","city":"Bronx","state":"NY","zip":"10460","longitude":"-73.893737","latitude":"40.846468","tags":"baked goods flowers eggs herbs vegetables honey jams fruits juices"},{"type":"market","name":"La Familia Verde Market","website":"http://lafamiliaverde.org","facebook":"","twitter":"","street":"Tremont Ave between Arthur Ave & LaFontaine Ave","city":"Bronx","state":"NY","zip":"10457","longitude":"-73.891978","latitude":"40.849357","tags":"baked goods eggs vegetables fruits"},{"type":"market","name":"Lake Placid Farmers' Market ","website":"http://www.ausablevalleygrangefarmersmarkets.com/lake-placid.html","facebook":"https://www.facebook.com/ausablevalleygrangefarmersmarkets/","twitter":"","street":"281 Station Street","city":"Lake Placid","state":"NY","zip":"12946","longitude":"-73.9841054","latitude":"44.2770413","tags":"organic baked goods cheese crafts flowers eggs vegetables honey jams maple meat poultry prepared-foods soap coffee fruits juices mushrooms wild"},{"type":"market","name":"Lakewood NY Farmers' and Artisans' Market","website":"http://lakewoodny.com/government/lakewoods-farmers-artisans-market/","facebook":"https://www.facebook.com/lakewoodnyfarmersmarket/","twitter":"","street":"Chautauqua Ave","city":"Lakewood","state":"NY","zip":"14750","longitude":"-79.326095","latitude":"42.103565","tags":"organic baked goods crafts flowers eggs vegetables honey jams maple meat poultry soap trees fruits juices mushrooms wild"},{"type":"market","name":"Lewis County General Hospitals Farmers Market","website":"http://www.lcgh.net","facebook":"","twitter":"","street":"7785 North State street","city":"Lowville","state":"NY","zip":"13367","longitude":"-75.500665","latitude":"43.794672","tags":"baked goods cheese vegetables honey maple fruits"},{"type":"market","name":"Lowville Farm and Craft Market","website":"","facebook":"https://www.facebook.com/lowvillefarmandcraftmarket/","twitter":"","street":"5473 Bostwick Street","city":"Lowville","state":"NY","zip":"13367","longitude":"-75.491021","latitude":"43.793854","tags":"organic baked goods cheese crafts flowers eggs herbs vegetables honey jams maple meat plants poultry prepared-foods soap trees wine coffee fruits mushrooms pet food"},{"type":"market","name":"Montour Falls Farmers Market","website":"http://www.montourfallsfarmersmarket.com","facebook":"https://www.facebook.com/Montour-Falls-Library-140122486056562","twitter":"","street":"300 West Main Street","city":"Montour Falls","state":"NY","zip":"14865","longitude":"-76.847748","latitude":"42.346431","tags":"organic baked goods cheese flowers eggs herbs vegetables honey jams maple meat plants poultry prepared-foods wine coffee fruits mushrooms wild"},{"type":"market","name":"Narrowsburg Farmers' Market","website":"https://narrowsburgfarmersmarket.org/","facebook":"https://www.facebook.com/narrowsburgfarmmarket/","twitter":"","street":"7 Erie Avenue","city":"Narrowsburg","state":"NY","zip":"12764","longitude":"-75.05512","latitude":"41.596136","tags":"baked goods cheese flowers eggs vegetables honey jams meat prepared-foods wine fruits mushrooms"},{"type":"market","name":"North Creek Farmers Market","website":"http://www.NorthCreekFarmersMarket.com","facebook":"https://www.facebook.com/NorthCreekFarmersMarket","twitter":"","street":"River Front Park, Rail Road Place","city":" North Creek","state":"NY","zip":"12843","longitude":"-73.988272","latitude":"43.702638","tags":"organic baked goods cheese crafts eggs vegetables honey jams maple meat poultry prepared-foods soap wine coffee fruits mushrooms wild"},{"type":"market","name":"Norwich Farmers Market","website":"http://www.lambsquartersinc.com","facebook":"Norwich NY Farmers Market","twitter":"","street":"2-75 North Broad Street","city":"Norwich","state":"NY","zip":"13815","longitude":"-75.523641","latitude":"42.531632","tags":"organic baked goods cheese flowers eggs herbs vegetables honey maple meat poultry prepared-foods soap beans fruits grains wild"},{"type":"market","name":"Ovid Farmers Market","website":"","facebook":"https://www.facebook.com/ovidfarmersmarket","twitter":"","street":"Main Street","city":"Ovid","state":"NY","zip":"14521","longitude":"-76.822157","latitude":"42.676729","tags":"baked goods crafts flowers eggs vegetables honey jams maple fruits"},{"type":"market","name":"Palisades Winter Farmers' Market","website":"http://www.palisadesfm.org","facebook":"https://www.facebook.com/Palisades-Indoor-Farmers-Market-NY-198235466870315/","twitter":"","street":"675 Oak Tree Road","city":"Palisades","state":"NY","zip":"10964","longitude":"-73.917284","latitude":"41.011605","tags":"baked goods cheese crafts eggs seafood vegetables honey jams meat plants prepared-foods coffee fruits mushrooms pet food"},{"type":"market","name":"Pawling Farmers Market","website":"http://www.pawlingfarmersmarket.org","facebook":"Pawling Farmer's Market - Saturdays 9am-1pm","twitter":"","street":"Charles Colman Blvd & West Main Street","city":"Pawling","state":"NY","zip":"12564","longitude":"-73.600845","latitude":"41.564215","tags":"organic baked goods cheese crafts flowers eggs herbs vegetables honey jams maple meat poultry soap wine coffee fruits mushrooms pet food"},{"type":"market","name":"Philmont Farmers' Market ","website":"http://www.philmontcooperative.com","facebook":"","twitter":"","street":"116 Main St. - opposite Local 111 restaurant ","city":"Village of Philmont","state":"NY","zip":"12565","longitude":"-73.649443","latitude":"42.249303","tags":"organic baked goods cheese crafts flowers eggs herbs vegetables honey jams maple meat plants poultry prepared-foods soap fruits"},{"type":"market","name":"Pitkin Verde Farmers Market","website":"http://www.cypresshills.org","facebook":"www.facebook.com/CHLDC","twitter":"twitter.com/CHLDC","street":"2094 Pitkin Avenue","city":"Brooklyn","state":"NY","zip":"11207","longitude":"-73.895438","latitude":"40.671863","tags":"flowers herbs vegetables fruits mushrooms"},{"type":"market","name":"Pleasantville Farmers Market - Outdoor","website":"https://www.pleasantvillefarmersmarket.org/","facebook":"https://www.facebook.com/PvilleFarmMarket","twitter":"","street":"Memorial Plaza (next to the train station)","city":"Pleasantville","state":"NY","zip":"10570","longitude":"-73.793652","latitude":"41.135051","tags":"organic baked goods cheese crafts flowers eggs seafood herbs vegetables honey jams maple meat plants poultry prepared-foods soap wine coffee fruits grains juices mushrooms pet food wild"},{"type":"market","name":"Poestenkill Farmers Market","website":"http://www.poestenkillfarmersmarket.com","facebook":"http://www.facebook.com/poestenkillfarmersmarket","twitter":"","street":"38 Davis Drive","city":"Poestenkill","state":"NY","zip":"12140","longitude":"-73.5635307","latitude":"42.6904758","tags":"baked goods cheese crafts flowers eggs herbs vegetables honey jams maple meat plants poultry soap wine fruits mushrooms pet food"},{"type":"market","name":"Port Chester Farmers Market","website":"https://www.portchesterfarmersmarket.com","facebook":"https://www.facebook/Port-Chester-Farmers-Market-1440567712732869/","twitter":"https://www.twitter.com/cgmarketsllc","street":"Highland St","city":"Port Chester","state":"NY","zip":"10573","longitude":"-73.661339","latitude":"41.002110","tags":"organic baked goods cheese eggs seafood herbs vegetables honey jams maple meat nuts poultry prepared-foods coffee fruits juices mushrooms pet food"},{"type":"market","name":"Roosevelt Community Farmers' Market","website":"http://www.rooseveltfarmersmarket.com","facebook":"https://www.facebook.com/Roosevelt-Community-Farmers-Market-1412573385674026/?ref=bookmarks","twitter":"@RCRGLI","street":"380 Nassau Road ","city":"Roosevelt","state":"NY","zip":"11575","longitude":"-73.5908479","latitude":"40.6817846","tags":"organic flowers vegetables honey maple fruits juices"},{"type":"market","name":"Salamanca Farmers market","website":"","facebook":"","twitter":"","street":"768 Broad st","city":"Salamanca","state":"NY","zip":"14779","longitude":"-78.741263","latitude":"42.164734","tags":"baked goods crafts flowers eggs herbs vegetables honey jams maple meat plants poultry prepared-foods soap fruits"},{"type":"market","name":"Saranac Lake Village Farmers Market","website":"http://www.ausablevalleygrangefarmersmarkets.com","facebook":"https://www.facebook.com/ausablevalleygrangefarmersmarkets/","twitter":"","street":"Riverside Park","city":"Saranac Lake","state":"NY","zip":"12983","longitude":"-74.131251","latitude":"44.324630","tags":"baked goods cheese crafts flowers eggs vegetables honey jams maple meat nuts plants prepared-foods soap wine coffee fruits juices mushrooms"},{"type":"market","name":"Saugerties Farmers Market ","website":"http://www.saugertiesfarmersmarket.com/","facebook":"https://www.facebook.com/SaugertiesFarmersMarket","twitter":"","street":"115 Main Street","city":"Saugerties","state":"NY","zip":"12477","longitude":"-73.946818","latitude":"42.080345","tags":"baked goods cheese flowers eggs herbs vegetables honey jams maple meat plants poultry prepared-foods soap trees wine coffee fruits juices tofu"},{"type":"market","name":"Scottsville Midweek Farmers' Market","website":"","facebook":"Scottsville Midweek Farmers' Market","twitter":"","street":"61 Main St.","city":"Scottsville","state":"NY","zip":"14546","longitude":"-77.753379","latitude":"43.022276","tags":"baked goods cheese flowers eggs herbs vegetables honey jams meat poultry prepared-foods soap fruits"},{"type":"market","name":"Seneca Falls Farmers Market","website":"http://senecamarket.com","facebook":"https://www.facebook.com/SenecaFallsFarmersMarket/","twitter":"","street":"15 Water Street","city":"Seneca Falls","state":"NY","zip":"13148","longitude":"-76.800314","latitude":"42.909109","tags":"baked goods cheese crafts flowers eggs vegetables honey jams maple meat plants poultry prepared-foods soap coffee fruits pet food"},{"type":"market","name":"Sodus Farmers' Market","website":"https://www.sutmc.org/sodus-farmers-market","facebook":"https://www.facebook.com/SodusFarmersMarket/?eid=ARAx1anugPLGTuAOgrSyAlxV8qSLvqleZBvkN3fo2Pe5yANpwQzvWSFcv6MK2K1anPvrVy_2sGgpGRfe","twitter":"","street":"58 West Main Street","city":"sodus","state":"NY","zip":"14551","longitude":"-77.062753","latitude":"43.237102","tags":"baked goods cheese flowers herbs vegetables honey jams plants prepared-foods soap fruits"},{"type":"market","name":"Southern Tier Farmers Market - Olean","website":"","facebook":"https://www.facebook.com/pages/Southern-Tier-Farmers-Market/165092373544019","twitter":"","street":"1900 Constitution Ave","city":"Olean","state":"NY","zip":"14760","longitude":"-78.041832","latitude":"42.211214","tags":"baked goods crafts flowers eggs herbs vegetables honey jams maple plants soap fruits"},{"type":"market","name":"The cornwall farmers market","website":"","facebook":"","twitter":"","street":"183 main street","city":"cornwall n.y.","state":"NY","zip":"12518","longitude":"-74.059815","latitude":"41.442234","tags":"organic baked goods cheese flowers eggs vegetables honey jams meat prepared-foods soap coffee fruits"},{"type":"market","name":"Troy Waterfront Farmers Market","website":"http://troymarket.org","facebook":"facebook.com/troywaterfrontfarmersmarket","twitter":"","street":"Riverfront Park","city":"Troy","state":"NY","zip":"12180","longitude":"-73.691288","latitude":"42.732715","tags":"organic baked goods cheese flowers eggs seafood herbs vegetables honey jams maple meat nuts plants poultry prepared-foods soap trees wine coffee fruits grains juices mushrooms pet food tofu wild"},{"type":"market","name":"Utica Farmers Market","website":"http://www.CityofUtica.com","facebook":"","twitter":"","street":"Chancellor Park, Elizabeth St.","city":"Utica","state":"NY","zip":"13501","longitude":"-75.225983","latitude":"43.096382","tags":"baked goods eggs vegetables honey jams maple fruits"},{"type":"market","name":"Voorheesville Farmers Market","website":"","facebook":"https://www.facebook.com/VoorheesvilleFarmersMarket","twitter":"","street":"68 Maple Ave.","city":"Voorheesville","state":"NY","zip":"12186","longitude":"-73.930027","latitude":"42.649656","tags":"baked goods flowers eggs herbs vegetables honey maple plants prepared-foods soap coffee fruits"},{"type":"market","name":"Waterloo Rotary Farm Market","website":"","facebook":"https://www.facebook.com/rotaryfarmarket","twitter":"","street":"22 Locust Street","city":"Waterloo","state":"NY","zip":"13165","longitude":"-76.865814","latitude":"42.903737","tags":"baked goods cheese crafts flowers eggs vegetables honey jams maple coffee fruits"},{"type":"market","name":"Webster's Joe Obbie Farmers' Market, Inc.","website":"http://www.webstersjoeobbiefarmersmarketinc.org","facebook":"https://www.facebook.com/pages/Websters-Joe-Obbie-Farmers-Market-Inc/271407932889827","twitter":"","street":"1028 Ridge Road, Webster Towne Center","city":"Webster","state":"NY","zip":"14580","longitude":"-77.452948","latitude":"43.212229","tags":"baked goods crafts flowers eggs vegetables honey jams maple meat plants fruits juices"},{"type":"market","name":"West Point-Town of Highlands Farmers Market","website":"","facebook":"https://www.facebook.com/pages/WestPointTownofHighlandsFarmersMarket","twitter":"","street":"Main street","city":"Village of Highland Falls","state":"NY","zip":"10928","longitude":"-73.96631","latitude":"41.36957","tags":"organic baked goods cheese crafts eggs herbs vegetables honey jams meat poultry prepared-foods soap fruits"},{"type":"market","name":"Woodstock Farm Festival","website":"https://www.woodstockfarmfestival.org/","facebook":"https://www.facebook.com/woodstockfarmfestival/","twitter":"","street":"6 Maple Lane","city":"Woodstock","state":"NY","zip":"12498","longitude":"-74.117834","latitude":"42.040522","tags":"organic baked goods flowers eggs seafood herbs vegetables honey jams maple meat plants poultry prepared-foods soap fruits mushrooms"},{"type":"market","name":"Yates County Cooperative Farm and Craft Market (Penn Yan Market)","website":"https://www.facebook.com/PennYan.Farmers.Market","facebook":"https://www.facebook.com/PennYan.Farmers.Market","twitter":"","street":"Main Street, North of Elm Street","city":"Penn Yan","state":"NY","zip":"14527","longitude":"-77.053889","latitude":"42.661345","tags":"organic baked goods cheese crafts flowers eggs herbs vegetables honey jams maple meat plants poultry soap fruits"}]
