[{"type":"farm","street":"","city":"Yoder","state":"WY","zip":"82244","longitude":"-104.283729","latitude":"41.915028","name":"Case Custom Meats","website":"www.casecustommeats.com","facebook":"Www.facebook.com/casecustommeats","twitter":"","tags":"red-meat non-poultry-meat"},{"type":"farm","street":"1141 State Hwy 50","city":"Gillette","state":"WY","zip":"82718","longitude":"-105.632576","latitude":"44.174429","name":"Our Wyoming Life Farm Store","website":"ourwyominglife.com","facebook":"https://www.facebook.com/ourwyominglifefarmstore/","twitter":"","tags":"baked-goods canned preserved cut-flowers eggs fresh-fruits fresh-vegetables honey maple-products poultry fowl red-meat non-poultry-meat"},{"type":"farm","street":"1141 State Hwy 50","city":"Gillette","state":"WY","zip":"82718","longitude":"-105.632683","latitude":"44.174991","name":"Our Wyoming Life Farm Store","website":"ourwyominglife.com","facebook":"https://www.facebook.com/ourwyominglifefarmstore/","twitter":"","tags":"baked-goods canned preserved cut-flowers eggs herbs fresh-fruits fresh-vegetables honey maple-products poultry fowl prepared-foods red-meat non-poultry-meat"},{"type":"farm","street":"1003 Dull Center Rd.","city":"Douglas ","state":"WY","zip":"82633","longitude":"-105.141069","latitude":"43.290421","name":"Reed Livestock LLC","website":"Www.Sagebrushbeef.com","facebook":"Reed Livestock","twitter":"","tags":""},{"type":"market","name":"Craft Market","website":"","facebook":"","twitter":"","street":"Decks Reserve Carpark, Wallace Street, Mouteka","city":"Wellington","state":"WY","zip":"70105","longitude":"-109.58853","latitude":"44.5205554","tags":"organic fruits"},{"type":"market","name":"Food for Thought Summer Market","website":"http://www.wyfftp.org/summermarket","facebook":"www.facebook.com/foodforthoughtmarkets","twitter":"","street":"200 S. David St.","city":"Casper","state":"WY","zip":"82601","longitude":"-106.3269901","latitude":"42.8482536","tags":"baked goods cheese crafts eggs herbs vegetables honey jams maple meat poultry prepared-foods soap wine coffee fruits juices mushrooms"},{"type":"market","name":"Jackalope Square Farmers Market","website":"","facebook":"https://www.facebook.com/Jackalope-Square-Farmers-Market-1336784669703622","twitter":"","street":"130 S. 3rd","city":"Douglas","state":"WY","zip":"82633","longitude":"-105.384457","latitude":"42.759014","tags":"baked goods crafts eggs vegetables honey jams prepared-foods soap coffee fruits"},{"type":"market","name":"Landon's Greenhouse Farmers Market","website":"https://landonsgreenhouse.com/local-foods/","facebook":"Landon's Saturday Farmers Market","twitter":"","street":"505 College Meadows Drive","city":"Sheridan","state":"WY","zip":"82801","longitude":"-106.948321","latitude":"44.760524","tags":"baked goods cheese flowers eggs herbs vegetables honey jams meat nuts poultry coffee beans fruits grains juices mushrooms"},{"type":"market","name":"Torrington WY Farmers Market","website":"","facebook":"https://www.facebook.com/torringtonwyfarmersmarket/","twitter":"","street":"21st & Main Street","city":"Torrington ","state":"WY","zip":"82240","longitude":"-104.184071","latitude":"42.064541","tags":"baked goods cheese crafts flowers eggs herbs vegetables honey soap fruits"},{"type":"market","name":"Winter Makers Market","website":"http://www.wyfftp.org/wintermarket","facebook":"www.facebook.com/foodforthoughtmarkets","twitter":"","street":"420 W. 1st St.","city":"Casper","state":"WY","zip":"82601","longitude":"-106.329524","latitude":"42.850412","tags":"baked goods cheese crafts eggs herbs vegetables honey jams poultry prepared-foods soap coffee juices"}]
