[{"type":"farm","street":"1336 Jorgensen Lane, Unit #1","city":"Santa Fe","state":"NM","zip":"87507","longitude":"-105.934035","latitude":"35.52727","name":"Beck & Bulow","website":"https://www.beckandbulow.com","facebook":"https://www.facebook.com/beckandbulow/","twitter":"https://twitter.com/beckandbulow","tags":"poultry fowl red-meat non-poultry-meat"},{"type":"farm","street":"Mile 1, Forest Rd 234","city":"Magdalena","state":"NM","zip":"87825","longitude":"-107.287484","latitude":"34.012144","name":"Dunhill Ranch All-Natural Grass-Fed Lamb","website":"www.dunhillranch.com","facebook":"","twitter":"","tags":"red-meat non-poultry-meat"},{"type":"farm","street":"","city":"Espanola","state":"NM","zip":"","longitude":"-106.065805","latitude":"36.003598","name":"J&L Gardens","website":"http://www.jandlgardens.com","facebook":"www.facebook.com/pages/J-L-Gardens/253306811388712","twitter":"","tags":""},{"type":"farm","street":"3757 US Hwy 82 ","city":"Mayhill","state":"NM","zip":"88339","longitude":"-105.449651","latitude":"32.916604","name":"Potter's Ranch","website":"","facebook":"https://www.facebook.com/pages/Potters-Ranch/241999489144780?ref=bookmarks","twitter":"","tags":"bedding plants cut-flowers eggs fresh-fruits fresh-vegetables"},{"type":"farm","street":"Highway 68, 1413, box 4","city":"VELARDE","state":"NM","zip":"87582","longitude":"-105.969742","latitude":"36.165529","name":"The Fruit Basket","website":"","facebook":"","twitter":"","tags":"baked-goods canned preserved coffee tea cut-flowers dry beans herbs fresh-fruits fresh-vegetables grains flour honey juices ciders nuts prepared-foods soap body-care"},{"type":"farm","street":"5000 Corrales rd.","city":"Corrales","state":"NM","zip":"83646","longitude":"-106.6114190","latitude":"35.2317680","name":"Wagner Farms","website":"www.wagnerfarmscorrales.com","facebook":"https://www.facebook.com/Wagnerfarms?ref=hl","twitter":"","tags":"canned preserved fresh-fruits fresh-vegetables"},{"type":"farm","street":"770 Curry Road M","city":"Clovis","state":"NM","zip":"88101","longitude":"-103.249837","latitude":"34.374628","name":"Windrush Alpacas","website":"www.windrushalpacas.com","facebook":"https://www.facebook.com/WindrushAlpacas","twitter":"https://twitter.com/WindrushAlpacas","tags":""},{"type":"market","name":"Espanola Farmers Market","website":"http://www.espanolafarmersmarket.org","facebook":"","twitter":"","street":"1105 N.Railroad  Avenue","city":"Espanola","state":"NM","zip":"87532","longitude":"-106.065805","latitude":"36.003598","tags":"organic baked goods flowers eggs herbs vegetables honey jams meat nuts plants poultry prepared-foods soap beans fruits wild"},{"type":"market","name":"Farmers and Crafts Market of Las Cruces ","website":"https://www.farmersandcraftsmarketoflascruces.com/","facebook":"https://www.facebook.com/LasCrucesMarket/","twitter":"","street":"221 N. Main St","city":"Las Cruces","state":"NM","zip":"88001","longitude":"-106.789695","latitude":"32.326444","tags":"organic baked goods crafts eggs herbs vegetables honey jams meat nuts prepared-foods soap trees coffee fruits"},{"type":"market","name":"Fort Sumner Farmers Market","website":"","facebook":"","twitter":"","street":"213 E Sumner Avenue","city":"Fort Sumner","state":"NM","zip":"88119","longitude":"-104.244013","latitude":"34.470848","tags":"baked goods crafts eggs herbs vegetables honey jams nuts plants soap fruits pet food"},{"type":"market","name":"Kirtland Growers Market","website":"","facebook":"https://www.facebook.com/KirtlandGrowersMarket/","twitter":"","street":"47 Road 6500","city":"Kirtland ","state":"NM","zip":"87417","longitude":"-108.3605187","latitude":"36.7507894","tags":"eggs vegetables prepared-foods fruits"},{"type":"market","name":"Los Ranchos Growers' Market","website":"","facebook":"https://www.facebook.com/LosRanchosNM","twitter":"","street":"City Hall, 6718 Rio Grande Blvd. NW","city":"Los Ranchos","state":"NM","zip":"87107","longitude":"-106.654919","latitude":"35.158683","tags":"organic baked goods cheese crafts flowers eggs seafood herbs vegetables honey jams meat nuts plants prepared-foods soap trees coffee beans fruits grains juices mushrooms pet food wild"},{"type":"market","name":"Pueblo of San Felipe Farmers' Market","website":"","facebook":"","twitter":"","street":"25 Hagen Road","city":"San Felipe Pueblo ","state":"NM","zip":"87001","longitude":"-106.404321","latitude":"35.416275","tags":"baked goods vegetables honey jams beans fruits grains"},{"type":"market","name":"Silver City Farmers' Market Downtown","website":"","facebook":"www.facebook.com/silvercityfarmersmarket/","twitter":"","street":"901 N Pope ST","city":"Silver City","state":"NM","zip":"88061","longitude":"-108.276185","latitude":"32.774517","tags":"baked goods cheese crafts flowers eggs herbs vegetables honey jams meat nuts plants prepared-foods soap trees fruits juices"},{"type":"market","name":"Silver City Farmers' Market Midweek Market","website":"","facebook":"https://www.facebook.com/silvercityfarmersmarket","twitter":"","street":"3025 Highway 180 E, Silver City, NM 88061","city":"Silver City","state":"NM","zip":"88061","longitude":"-108.242482","latitude":"32.787733","tags":"baked goods eggs herbs vegetables honey jams meat nuts fruits"},{"type":"market","name":"Sleeping Dragon Farmers Market","website":"http://www.davmid.com","facebook":"www.facebook.com/sleepingdragonfarmersoutlet","twitter":"","street":"6475 Columbus Rd SE","city":"Deming","state":"NM","zip":"88030","longitude":"-107.750939","latitude":"32.189126","tags":"flowers eggs herbs vegetables honey jams nuts soap beans fruits"},{"type":"market","name":"Sunland Park Ardovino's DC Farmers' Market","website":"http://www.ardovinos.com","facebook":"https://www.facebook.com/FarmersMarketAtADC","twitter":"","street":"one Ardovino Dr","city":"sunland park","state":"NM","zip":"88063","longitude":"-106.557437","latitude":"31.791358","tags":"organic baked goods cheese crafts flowers eggs herbs vegetables honey jams meat nuts plants poultry prepared-foods soap trees wine coffee fruits grains juices mushrooms"},{"type":"market","name":"Taos Farmers' Market","website":"http://www.taosfarmersmarket.org","facebook":"Www.facebook.com/taosfarmersmarket","twitter":"","street":"400 Camina de la Placita","city":"Taos ","state":"NM","zip":"87571","longitude":"-105.574539","latitude":"36.407207","tags":"baked goods cheese flowers eggs seafood herbs vegetables honey jams meat nuts plants prepared-foods soap coffee beans fruits grains juices mushrooms wild"},{"type":"market","name":"the Farm Market","website":"","facebook":"the Farm Market","twitter":"","street":"Main St","city":"Hillsboro ","state":"NM","zip":"88042","longitude":"-107.569106","latitude":"32.920178","tags":"baked goods crafts flowers eggs herbs vegetables jams coffee fruits"}]
