[{"type":"farm","street":"132 Apple Valley Drive","city":"Mendenhall ","state":"MS","zip":"39114","longitude":"-89.840811","latitude":"32.035084","name":"Apple Valley Produce","website":"","facebook":"","twitter":"","tags":"bedding plants crafts woodworking cut-flowers herbs fresh-fruits fresh-vegetables nursery-stock nuts"},{"type":"farm","street":"1412 Seed Tick Rd","city":"Caledonia","state":"MS","zip":"39740","longitude":"-88.307479","latitude":"33.657881","name":"Dowdle Family Farms","website":"dowdlefamilyfarms.com","facebook":"https://www.facebook.com/dowdlefamilyfarms","twitter":"","tags":"fresh-vegetables honey poultry fowl red-meat non-poultry-meat"},{"type":"farm","street":"1041 C.R. 182 ","city":"Dumas","state":"MS","zip":"38625","longitude":"-88.8354170","latitude":"34.5481221","name":"Hays Berry Farms","website":"www.haysberryfarms.com","facebook":"HAYS Berry FARM","twitter":"","tags":"coffee tea fresh-fruits fresh-vegetables honey"},{"type":"farm","street":"270 MONROE RD.","city":"Hattiesburg ","state":"MS","zip":"39401","longitude":"-89.291007","latitude":"31.377864","name":"LEAF RIVER HONEY","website":"","facebook":"https://www.facebook.com/#!/LeafRiverHoney","twitter":"","tags":"honey"},{"type":"farm","street":"2817 Douglass Rd","city":"Macon","state":"MS","zip":"39341","longitude":"-88.460969","latitude":"33.130152","name":"New Grass Farms","website":"www.newgrassfarms.com","facebook":"New Grass Farms","twitter":"","tags":"coffee tea nuts red-meat non-poultry-meat"},{"type":"farm","street":"1300 Sharon Road","city":"Canton","state":"MS","zip":"39046","longitude":"-89.919910","latitude":"32.643040","name":"Remington-Lott Farms","website":"https://www.remingtonlottfarms.com","facebook":"https://facebook.com/remingtonlottfarms","twitter":"","tags":"pet-food"},{"type":"farm","street":"1098 County Line Rd","city":"Lena","state":"MS","zip":"39094","longitude":"-89.5583399","latitude":"32.5705997","name":"Reyer Farms","website":"www.reyerfarms.com","facebook":"https://www.facebook.com/ReyerFarms","twitter":"","tags":""},{"type":"farm","street":"10392 Highway 45 Alt North","city":"West Point ","state":"MS","zip":"39773","longitude":"-88.6620892","latitude":"33.5903942","name":"Swords Pecans LLC","website":"","facebook":"","twitter":"","tags":""},{"type":"farm","street":"4952 HWY 29","city":"Petal","state":"MS","zip":"39465","longitude":"-89.111163","latitude":"31.363646","name":"Tallahala Creek Farms, LLC","website":"","facebook":"https://www.facebook.com/TallahalaCreekFarm","twitter":"","tags":"fresh-fruits fresh-vegetables"},{"type":"market","name":"Como Farmer's Market","website":"http://comofarmark@aol.com","facebook":"fb.me/comofarmersmarket@facebook.com","twitter":"","street":"Main Street","city":"Como","state":"MS","zip":"38619","longitude":"-89.939947","latitude":"34.513561","tags":"baked goods vegetables jams plants"},{"type":"market","name":"Downtown Madison Farmers Market","website":"","facebook":"https://www.facebook.com/DowntownMadisonFarmersMarket","twitter":"","street":"2103 Main Street / Historic Red Caboose Site","city":"Madison ","state":"MS","zip":"39110","longitude":"-90.114634","latitude":"32.460885","tags":"baked goods cheese crafts flowers eggs seafood herbs vegetables honey jams meat nuts prepared-foods soap coffee fruits"},{"type":"market","name":"Hernando Farmers Market","website":"http://www.cityofhernando.org/farmersmarket","facebook":"https://www.facebook.com/pages/Hernando-Farmers-Market/","twitter":"","street":"2535 Highway 51 South","city":"Hernando","state":"MS","zip":"38632","longitude":"-89.994281","latitude":"34.823026","tags":"baked goods cheese crafts flowers eggs herbs vegetables honey jams meat nuts plants prepared-foods soap trees coffee beans fruits grains juices mushrooms pet food"},{"type":"market","name":"Laurel Farmers Market","website":"http://downtownthursday.com","facebook":"facebook.com/downtownlaurelfarmersmarket/","twitter":"","street":"","city":"Laurel","state":"MS","zip":"39440","longitude":"-89.130033","latitude":"31.692522","tags":"baked goods cheese crafts flowers eggs herbs vegetables honey jams nuts plants prepared-foods soap coffee fruits juices wild"},{"type":"market","name":"Mid-Town Farmers Market","website":"http://www.mtfarmersmarket.com","facebook":"https://www.facebook.com/mtmarket","twitter":"","street":"700 North Lamar Blvd.","city":"Oxford","state":"MS","zip":"38655","longitude":"-89.516816","latitude":"34.373647","tags":"baked goods flowers eggs herbs vegetables honey jams meat plants prepared-foods soap coffee fruits"},{"type":"market","name":"Square Market","website":"http://www.batesvillemainstreet.com/events/","facebook":"","twitter":"","street":"Public Square","city":"Batesville","state":"MS","zip":"38606","longitude":"-89.952098","latitude":"34.316885","tags":"baked goods crafts flowers herbs vegetables honey jams soap fruits"},{"type":"market","name":"Tupelo Farmers' Depot","website":"http://www.tupelomainstreet.com","facebook":"tupelo farmers depot","twitter":"","street":"415 South Spring Street","city":"Tupelo","state":"MS","zip":"38804","longitude":"-88.704327","latitude":"34.253733","tags":"baked goods flowers herbs vegetables honey jams nuts plants prepared-foods soap coffee fruits mushrooms"}]
