[{"type":"farm","street":"829 Piper Hill Road","city":"Stewartstown","state":"NH","zip":"03576","longitude":"-71.491190","latitude":"44.952681","name":"Apple Haven Farm","website":"www.applehavenfarm.com","facebook":"facebook/applehavenfarm","twitter":"","tags":"dairy products herbs fresh-fruits fresh-vegetables"},{"type":"farm","street":"1266 Upper City Road","city":"Pittsfield","state":"NH","zip":"3263","longitude":"-71.342297","latitude":"43.325531","name":"Appleview Orchard","website":"","facebook":"","twitter":"","tags":""},{"type":"farm","street":"150 Arbutus Hill Rd","city":"Meredith","state":"NH","zip":"03253","longitude":"-71.577164","latitude":"43.606107","name":"Arbutus Hill Farm","website":"www.ladyfarmer.com","facebook":"","twitter":"","tags":"baked-goods bedding plants canned preserved herbs fresh-vegetables mushrooms nuts poultry fowl red-meat non-poultry-meat"},{"type":"farm","street":"67 Old Portland Rd., off Brownfield Road","city":"Eaton","state":"NH","zip":"03832","longitude":"-71.010638","latitude":"43.916591","name":"BerryKnoll","website":"BerryKnoll.com","facebook":"","twitter":"","tags":"fresh-fruits maple-products nursery-stock"},{"type":"farm","street":"37 March Road","city":"Sanbornton","state":"NH","zip":"3269","longitude":"-71.593585","latitude":"43.478446","name":"Broadview Farm","website":"www.broadviewfarm.com","facebook":"","twitter":"","tags":"fresh-vegetables honey"},{"type":"farm","street":"195 Meaderboro Road","city":"Farmington","state":"NH","zip":"03835","longitude":"-71.068903","latitude":"43.323159","name":"Butternut Farm LLC","website":"www.Butternutfarm.net","facebook":"","twitter":"","tags":"baked-goods canned preserved fresh-fruits honey juices ciders maple-products"},{"type":"farm","street":"53 Woodview Heights","city":"Bradford","state":"NH","zip":"03221","longitude":"-71.977336","latitude":"43.263441","name":"Cornucopia Farm","website":"http://www.cornucopiafarmnh.com","facebook":"","twitter":"","tags":"bedding plants crafts woodworking cut-flowers dairy products eggs herbs fresh-fruits fresh-vegetables poultry fowl red-meat non-poultry-meat soap body-care"},{"type":"farm","street":"66 Lee Road (route 155)","city":"Lee","state":"NH","zip":"3861","longitude":"-70.967587","latitude":"43.157470","name":"Demeritt Hill Farm","website":"www.demeritthillfarm.com","facebook":"https://www.facebook.com/pages/DeMeritt-Hill-Farm/166676763359982?ref=bookmarks","twitter":"https://twitter.com/NHapples","tags":"baked-goods canned preserved coffee tea crafts woodworking cut-flowers fresh-fruits fresh-vegetables honey juices ciders maple-products nursery-stock prepared-foods soap body-care"},{"type":"farm","street":"1028 Main Rd","city":"Chatham ","state":"NH","zip":"03813","longitude":"-71.0068566","latitude":"44.1648428","name":"Dietz's Farm","website":"","facebook":"","twitter":"","tags":"eggs"},{"type":"farm","street":"2871 State Route 114","city":"Bradford","state":"NH","zip":"03221","longitude":"-71.911341","latitude":"43.235200","name":"Elior Acres, LLC","website":"www.EliorAcres.com","facebook":"https://www.facebook.com/EliorAcres","twitter":"","tags":"baked-goods crafts woodworking eggs herbs poultry fowl red-meat non-poultry-meat"},{"type":"farm","street":"26 Chesham Road","city":"Dublin","state":"NH","zip":"03444","longitude":"-72.150907","latitude":"42.918938","name":"Farmer John's Plot","website":"http://farmerjohnsplot.org/","facebook":"https://www.facebook.com/farmerjohnsplot?ref=br_tf","twitter":"","tags":"baked-goods bedding plants canned preserved coffee tea cut-flowers dairy products eggs herbs fresh-fruits fresh-vegetables grains flour honey juices ciders maple-products mushrooms nuts poultry fowl prepared-foods red-meat non-poultry-meat soap body-care wild-harvested forest-products"},{"type":"farm","street":"875 Jaffrey Road","city":"Marlborough","state":"NH","zip":"3455","longitude":"-72.156181","latitude":"42.859482","name":"Gap Mountain Goats","website":"www.GapMountainGoats.com","facebook":"","twitter":"","tags":"eggs poultry fowl red-meat non-poultry-meat"},{"type":"farm","street":"656 Gould Hill Road","city":"Hopkinton","state":"NH","zip":"3229","longitude":"-71.68936","latitude":"43.22074","name":"Gould Hill Farm","website":"Http://Www.gouldhillfarm.com","facebook":"https://www.facebook.com/121710497201","twitter":"HTTPS://twitter.com/gouldhillfarm","tags":""},{"type":"farm","street":"151 Tasker Hill Road","city":"Conway","state":"NH","zip":"03818","longitude":"-71.117469","latitude":"43.969910","name":"Grand View Farm","website":"http://grandviewfarm.blogspot.com/","facebook":"https://www.facebook.com/gvfarms1","twitter":"","tags":"eggs fresh-vegetables honey maple-products"},{"type":"farm","street":"1440 Brownfield Road","city":"Center Conway","state":"NH","zip":"03813","longitude":"-71.0133851","latitude":"43.9581759","name":"Hatches Orchard","website":"none","facebook":"none","twitter":"","tags":""},{"type":"farm","street":"1815 Claremont Road","city":"Charlestown","state":"NH","zip":"03603","longitude":"-72.397229","latitude":"43.283646","name":"Hemingway Farms","website":"www.hemingwayfarms.com","facebook":"Hemingway Farms","twitter":"","tags":"baked-goods bedding plants canned preserved cut-flowers dairy products eggs herbs fresh-fruits fresh-vegetables honey maple-products nursery-stock"},{"type":"farm","street":"42 Thornell Rd.","city":"Newton","state":"NH","zip":"03858","longitude":"-71.0540620","latitude":"42.8639228","name":"Hidden Acres Farm","website":"","facebook":"","twitter":"","tags":"bedding plants cut-flowers eggs herbs fresh-fruits fresh-vegetables honey poultry fowl"},{"type":"farm","street":"26 Sunset Cir","city":"Alstead","state":"NH","zip":"03602","longitude":"-72.364887","latitude":"43.128949","name":"Highland View Farm","website":"https://www.highlandviewfreerange.com/","facebook":"","twitter":"","tags":"canned preserved eggs herbs fresh-vegetables honey maple-products poultry fowl"},{"type":"farm","street":"46 Huntoon Road","city":"Danbury","state":"NH","zip":"03230","longitude":"-71.860923","latitude":"43.512655","name":"Huntoon Farm","website":"huntoonfarm.com","facebook":"https://www.facebook.com/HuntoonFarm","twitter":"","tags":"baked-goods crafts woodworking dairy products eggs herbs poultry fowl prepared-foods red-meat non-poultry-meat"},{"type":"farm","street":"58 Weston Hill Road","city":"Mont Vernon","state":"NH","zip":"03057","longitude":"-71.6636035","latitude":"42.9106738","name":"Jennings Family Farm","website":"","facebook":"https://www.facebook.com/pages/Jennings-Family-Farm/207505105929625","twitter":"","tags":"dairy products"},{"type":"farm","street":"Hunkins Pond Road","city":"Sanbornton","state":"NH","zip":"03269","longitude":"-71.546131","latitude":"43.509974","name":"Lower 35 Farm Stand","website":"","facebook":"","twitter":"","tags":"baked-goods bedding plants canned preserved cut-flowers eggs fresh-fruits fresh-vegetables honey juices ciders prepared-foods soap body-care"},{"type":"farm","street":"147 Piscataqua Road","city":"Durham","state":"NH","zip":"03824","longitude":"-70.875933","latitude":"43.132150","name":"Market & Cafe at Emery Farm","website":"https://emeryfarm.com","facebook":"https://www.facebook.com/EmeryFarmNH/","twitter":"","tags":"baked-goods canned preserved coffee tea dairy products dry beans eggs fish seafood herbs fresh-fruits fresh-vegetables grains flour honey juices ciders maple-products nuts pet-food poultry fowl prepared-foods red-meat non-poultry-meat soap body-care tofu non-animal protein wine spirits beer hard-cider"},{"type":"farm","street":"42 Nute Road","city":"Madbury","state":"NH","zip":"03823","longitude":"-70.975992","latitude":"43.185385","name":"Old Orchard farm, LLC","website":"http://www.oldorchard.farm/","facebook":"https://www.facebook.com/pages/Old-Orchard-Farm-LLC/1402594990003111","twitter":"","tags":"honey maple-products poultry fowl red-meat non-poultry-meat"},{"type":"farm","street":"468 Center Rd","city":"Lyndeborough","state":"NH","zip":"03082","longitude":"-71.7339943","latitude":"42.8709851","name":"Paradise Farm LLC","website":"www.ParadiseFarmNH.com","facebook":"Paradise Farm NH","twitter":"","tags":"canned preserved dairy products eggs fresh-fruits honey maple-products poultry fowl red-meat non-poultry-meat soap body-care"},{"type":"farm","street":"468 Center Rd.","city":"Lyndeborough","state":"NH","zip":"03082","longitude":"-71.7339943","latitude":"42.8709851","name":"Paradise Farm LLC","website":"Paradisefarmnh.com","facebook":"","twitter":"","tags":"canned preserved dairy products eggs fresh-fruits honey maple-products poultry fowl red-meat non-poultry-meat soap body-care"},{"type":"farm","street":"58 Cleveland Hill Rd","city":"Tamworth","state":"NH","zip":"03886","longitude":"-71.2683015","latitude":"43.8584337","name":"Remick Country Doctor Museum and Farm","website":"www.remickmuseum.org","facebook":"https://www.facebook.com/remickcountrydoctormuseumandfarm","twitter":"","tags":"baked-goods cut-flowers eggs herbs fresh-vegetables honey maple-products prepared-foods red-meat non-poultry-meat soap body-care wild-harvested forest-products"},{"type":"farm","street":"201 Udall Road","city":"Francestown","state":"NH","zip":"03043","longitude":"-71.844788","latitude":"42.978013","name":"Rocky Meadow Farm","website":"www.rockymeadowfarm.com","facebook":"https://www.facebook.com/RockyMeadowFarm","twitter":"","tags":"red-meat non-poultry-meat"},{"type":"farm","street":"960 Whitefield Road (route 142)","city":"Dalton","state":"NH","zip":"3598","longitude":"-71.6948098","latitude":"44.4158924","name":"RoseMartin Farms","website":"","facebook":"","twitter":"","tags":"fresh-vegetables"},{"type":"farm","street":" District #5 Road","city":"Concord","state":"NH","zip":"03303","longitude":"-71.615361","latitude":"43.217957","name":"Rossview Farm","website":"www.rossviewfarm.com","facebook":"","twitter":"","tags":""},{"type":"farm","street":"576 Northwest Road Route 132","city":"Canterbury","state":"NH","zip":"3224","longitude":"-71.5652802","latitude":"43.3372738","name":"Running Fox Farm","website":"www.runningfoxfarmnh.com","facebook":"https://www.facebook.com/running.f.farm","twitter":"","tags":"baked-goods bedding plants canned preserved cut-flowers dairy products fresh-vegetables honey maple-products pet-food poultry fowl soap body-care wine spirits beer hard-cider"},{"type":"farm","street":"289 Maple Street","city":"Contoocook","state":"NH","zip":"3229","longitude":"-71.709969","latitude":"43.215632","name":"Russells Blueberries","website":"www.russellcertifiedorganic.com","facebook":"https://www.facebook.com/pages/Russells-Organic-Blueberries/115364307642","twitter":"","tags":"bedding plants cut-flowers fresh-fruits honey maple-products"},{"type":"farm","street":"141 Spruceville Rd","city":"Milan","state":"NH","zip":"03588","longitude":"-71.309134","latitude":"44.590829","name":"Six Acre Farm","website":"sixacrefarm.com","facebook":"","twitter":"","tags":""},{"type":"farm","street":"72 Jaffrey Rd.","city":"Fitzwilliam","state":"NH","zip":"03447","longitude":"-72.140829","latitude":"42.782479","name":"Tracie's Community Farm, LLC","website":"www.traciesfarm.com","facebook":"https://www.facebook.com/pages/Tracies-Community-Farm-LLC/172047872823613?ref=hl","twitter":"","tags":"baked-goods bedding plants canned preserved cut-flowers dairy products eggs herbs fresh-fruits fresh-vegetables honey maple-products soap body-care"},{"type":"farm","street":"663 Wentworth Road","city":"Walpole","state":"NH","zip":"03608","longitude":"-72.425371","latitude":"43.032428","name":"Walpole Valley Farms","website":"www.walpolevalleyfarms.com","facebook":"https://www.facebook.com/WalpoleValleyFarms?ref=hl","twitter":"","tags":"eggs maple-products poultry fowl red-meat non-poultry-meat"},{"type":"farm","street":"35 North Road","city":"East Kingston","state":"NH","zip":"03827","longitude":"-70.991808","latitude":"42.927052","name":"Windcrest Tree Farm","website":"www.windcrestfarm.info","facebook":"","twitter":"","tags":"baked-goods canned preserved crafts woodworking eggs honey maple-products"},{"type":"farm","street":"19 Windy Hill Dr","city":"Jackson","state":"NH","zip":"","longitude":"-71.153857","latitude":"44.172492","name":"Windy Hill Natural Beef","website":"www.windyhillbandb.com/beef.php","facebook":"","twitter":"","tags":""},{"type":"market","name":"Bedford Farmers Market","website":"http://Www.bedfordfarmersmarketnh.org","facebook":"https://www.facebook.com/BedfordFarmersMarketNH/","twitter":"","street":"209 Route 101","city":"Bedford","state":"NH","zip":"03110","longitude":"-71.525849","latitude":"42.938268","tags":"organic baked goods cheese crafts flowers eggs seafood herbs vegetables honey jams maple meat plants poultry prepared-foods soap wine coffee fruits juices mushrooms"},{"type":"market","name":"Claremont Farmers' Market","website":"http://www.claremontnh.com/residents/departments/parks-and-recreation/farmers-market.aspx","facebook":"ClaremontFarmersMarketnh","twitter":"","street":"14 North Street","city":"Claremont","state":"NH","zip":"03743","longitude":"-72.339305","latitude":"43.375823","tags":"baked goods cheese crafts flowers eggs vegetables honey jams maple meat plants poultry prepared-foods soap coffee fruits"},{"type":"market","name":"Dover Farmers' Market","website":"http://www.seacoastgrowers.org","facebook":"https://www.facebook.com/Market03820","twitter":"https://twitter.com/market03820","street":"550 Central Avenue","city":"Dover","state":"NH","zip":"03820","longitude":"-70.875971","latitude":"43.200765","tags":"organic baked goods cheese crafts flowers eggs herbs vegetables honey jams maple meat plants prepared-foods soap wine coffee fruits juices"},{"type":"market","name":"Durham Farmers' Market","website":"http://www.seacoastgrowers.org","facebook":"https://www.facebook.com/Market03824","twitter":"https://twitter.com/market03824","street":"Jackson Landing, 10 Old Piscataqua Road","city":"Durham","state":"NH","zip":"","longitude":"-70.910656","latitude":"43.136610","tags":"organic baked goods cheese crafts flowers eggs herbs vegetables honey jams maple meat prepared-foods coffee fruits juices"},{"type":"market","name":"Exeter Farmers’ Market","website":"http://www.seacoastgrowers.org","facebook":"https://www.facebook.com/Market03833","twitter":"https://twitter.com/market03833","street":"Swasey Parkway, off Water Street","city":"Exeter","state":"NH","zip":"","longitude":"-70.950053","latitude":"42.983633","tags":"organic baked goods cheese crafts flowers eggs seafood herbs vegetables honey jams maple meat plants poultry prepared-foods soap wine coffee beans fruits juices mushrooms"},{"type":"market","name":"Gilmanton Community Farmers Market Association","website":"http://Gilmantonfarmersmarket.com","facebook":"Facebook.com/gilmantoncommunityfarmersmarket","twitter":"","street":"1385 NH Route 140","city":"Gilmanton","state":"NH","zip":"03237","longitude":"-71.332318","latitude":"43.425347","tags":"organic baked goods cheese crafts flowers eggs seafood herbs vegetables honey jams maple meat poultry prepared-foods soap coffee fruits mushrooms wild"},{"type":"market","name":"Newmarket Farmers Market ","website":"","facebook":"https://www.facebook.com/Newmarketfarmersmarket","twitter":"","street":"5 Granite St ","city":"Newmarket ","state":"NH","zip":"03875","longitude":"-70.9380776","latitude":"43.0788567","tags":"organic baked goods crafts flowers eggs seafood herbs vegetables jams maple meat plants poultry prepared-foods soap coffee fruits mushrooms wild"},{"type":"market","name":"Portsmouth Farmers' Market","website":"http://www.seacoastgrowers.org","facebook":"https://www.facebook.com/Market03801","twitter":"https://twitter.com/market03801","street":"City Hall, 1 Junkins Avenue","city":"Portsmouth","state":"NH","zip":"03801","longitude":"-70.7535534","latitude":"43.0711929","tags":"organic baked goods cheese crafts flowers eggs seafood herbs vegetables honey jams maple meat plants poultry prepared-foods soap wine coffee fruits juices mushrooms pet food"},{"type":"market","name":"Rindge Farmers and Crafters Market","website":"","facebook":"https://www.facebook.com/pages/Rindge-Farmers-and-Crafters-Market/131621310193301","twitter":"","street":"Bradford Street and Route 202","city":"Rindge","state":"NH","zip":"03461","longitude":"-72.035850","latitude":"42.765593","tags":"organic baked goods cheese crafts flowers eggs herbs vegetables honey jams maple meat plants poultry prepared-foods soap fruits"},{"type":"market","name":"Salem NH Farmers Market - Winter","website":"http://www.salemnhfarmersmarket.org","facebook":"https://www.facebook.com/salemnhfarmersmarket/?ref=bookmarks","twitter":"","street":"14 Main Street","city":"Salem","state":"NH","zip":"03079","longitude":"-71.2372585","latitude":"42.7817730","tags":"baked goods cheese crafts eggs seafood herbs vegetables honey jams maple meat nuts poultry prepared-foods soap coffee fruits pet food"},{"type":"market","name":"Seacoast Eat Local Winter Farmers' Market - Exeter High School","website":"http://www.seacoasteatlocal.org","facebook":"facebook.com/seacoasteatlocal","twitter":"@SeacoastEatLocl","street":"1 Blue Hawk Drive","city":"Exeter","state":"NH","zip":"03833","longitude":"-71.0003126","latitude":"43.0168516","tags":"organic baked goods cheese eggs vegetables honey jams maple meat poultry prepared-foods soap wine coffee beans fruits juices mushrooms"},{"type":"market","name":"Seacoast Eat Local Winter Farmers' Market - Wentworth Greenhouses ","website":"http://seacoasteatlocal.org","facebook":"facebook.com/seacoasteatlocal","twitter":"@SeacoastEatLocl","street":"141 Rollins Road ","city":"Rollinsford","state":"NH","zip":"03869","longitude":"-70.8601023","latitude":"43.2155618","tags":"organic baked goods cheese eggs vegetables honey jams maple meat poultry prepared-foods soap wine coffee beans fruits juices mushrooms"},{"type":"market","name":"Team Jaffrey Farmers Market","website":"http://www.teamjaffrey.org","facebook":"Teamjaffreymarket","twitter":"","street":"28 Main St","city":"Jaffrey ","state":"NH","zip":"03452","longitude":"-72.023787","latitude":"42.815213","tags":"baked goods cheese crafts flowers eggs vegetables honey jams maple poultry prepared-foods soap wine fruits"},{"type":"market","name":"Wolfeboro Area Farmers Market","website":"http://www.wolfeboroareafarmersmarket.com","facebook":"https://www.facebook.com/wolfeboroareafarmersmarket","twitter":"","street":"233 South Main St","city":"Wolfeboro","state":"NH","zip":"03894","longitude":"-71.202747","latitude":"43.580593","tags":"organic baked goods cheese flowers eggs seafood herbs vegetables honey jams maple meat plants poultry prepared-foods soap wine coffee fruits juices wild"}]
