[{"type":"farm","street":"8259 Keys Road","city":"Mount Vernon","state":"OH","zip":"43050","longitude":"-82.5620100","latitude":"40.3586810","name":"4R Angus Farm","website":"4RAngusFarm.weebly.com","facebook":"4R Angus Farm","twitter":"","tags":"poultry fowl red-meat non-poultry-meat"},{"type":"farm","street":"6373 W. US RT 36","city":"Covington","state":"OH","zip":"45318","longitude":"-84.324411","latitude":"40.127688","name":"Adams Greenhouse & Produce LLC","website":"www.adamsgreenhouse.com","facebook":"https://www.facebook.com/adamsgreenhouse","twitter":"","tags":"baked-goods bedding plants canned preserved coffee tea cut-flowers dairy products dry beans eggs fish seafood herbs fresh-fruits fresh-vegetables grains flour honey maple-products mushrooms nuts poultry fowl prepared-foods red-meat non-poultry-meat soap body-care"},{"type":"farm","street":"82nd & Kinsman rd.","city":"Cleveland","state":"OH","zip":"44104","longitude":"-81.630177","latitude":"41.475637","name":"Amalfi Gardens LLC","website":"","facebook":"https://www.facebook.com/AmalfiGardens","twitter":"","tags":""},{"type":"farm","street":"6615 Peters Rd","city":"Tipp City","state":"OH","zip":"45371","longitude":"-84.225463","latitude":"39.94265","name":"Angry Hippie Farms, LLC","website":"http://www.angryhippiefarms.com","facebook":"https://www.facebook.com/AngryHippieFarms","twitter":"","tags":""},{"type":"farm","street":"11724 Lisbon St SE","city":"Paris ","state":"OH","zip":"44669","longitude":"-81.182497","latitude":"40.799762","name":"Arrowhead Orchard LLC","website":"https://www.arrowheadorchard.com/","facebook":"https://www.facebook.com/ArrowheadOrchard/","twitter":"","tags":"baked-goods canned preserved coffee tea crafts woodworking cut-flowers eggs herbs fresh-fruits fresh-vegetables grains flour honey juices ciders maple-products nuts pet-food soap body-care"},{"type":"farm","street":"7285 County Road 183","city":"Fredericktown","state":"OH","zip":"43019","longitude":"-82.672361","latitude":"40.432817","name":"BaaLiss Grass Farm","website":"","facebook":"www.facebook.com/baalissgrass.farm","twitter":"","tags":"eggs poultry fowl red-meat non-poultry-meat"},{"type":"farm","street":"5459 Blue Ribbon Rd","city":"Hillsboro","state":"OH","zip":"45133","longitude":"-83.4767810","latitude":"39.1619920","name":"Blue Ribbon Farm","website":"","facebook":"","twitter":"","tags":"fresh-fruits fresh-vegetables"},{"type":"farm","street":"14337 US Highway 23","city":"South Bloomfield","state":"OH","zip":"43103","longitude":"-82.987563","latitude":"39.724435","name":"Blueberry Valley","website":"www.columbusblueberry.com","facebook":"Blueberry Valley","twitter":"","tags":"canned preserved fresh-fruits honey wild-harvested forest-products"},{"type":"farm","street":"3779 State Route 132","city":"Clarksville","state":"OH","zip":"45113","longitude":"-84.019575","latitude":"39.367811","name":"Bonnybrook Farms","website":"www.BonnybrookFarms.com","facebook":"www.Facebook/BonnybrookFarms","twitter":"","tags":"baked-goods canned preserved coffee tea prepared-foods"},{"type":"farm","street":"3257 US 127 N","city":"Eaton ","state":"OH","zip":"45320","longitude":"-84.631422","latitude":"39.791734","name":"Boulder Belt Eco-Farm","website":"http://www.boulderbelt.com","facebook":"https://www.facebook.com/boulderbeltfarm","twitter":"","tags":"canned preserved crafts woodworking dry beans eggs herbs fresh-fruits fresh-vegetables honey maple-products"},{"type":"farm","street":"23342 Bowman Rd.","city":"Homeworth","state":"OH","zip":"44634","longitude":"-81.0616202","latitude":"40.8431293","name":"Breezy Hill Farm","website":"www.breezyhillfarmohio.com","facebook":"https://www.facebook.com/pages/Breezy-Hill-Farm-Homeworth-Ohio/184191254939126","twitter":"","tags":"cut-flowers herbs fresh-vegetables wild-harvested forest-products"},{"type":"farm","street":"2626 Hussey Rd.","city":"Xenia","state":"OH","zip":"45385","longitude":"-83.942201","latitude":"39.6834","name":"Brookside Farm","website":"","facebook":"Brookside Farm","twitter":"","tags":"eggs"},{"type":"farm","street":"5702 Eber Rd.","city":"Whitehouse","state":"OH","zip":"43571","longitude":"-83.786230","latitude":"41.536222","name":"Bucher Family Farm","website":"","facebook":"","twitter":"","tags":""},{"type":"farm","street":"3486 Pioneer Tr.","city":"Mantua","state":"OH","zip":"44255","longitude":"-81.267049","latitude":"41.292584","name":"Carlton Farm Produce","website":"www.carltonfarmproduce.com","facebook":"https://www.facebook.com/CarltonFarmProduce","twitter":"https://www.twitter.com/carltonfarmprod","tags":"fresh-vegetables"},{"type":"farm","street":"1740 Sportsman Club Road","city":"Newark","state":"OH","zip":"43055","longitude":"-82.5317710","latitude":"40.1554270","name":"Charlie's Apples at Windy Hill Apple Farm","website":"www.charliesapples.com","facebook":"","twitter":"","tags":"fresh-fruits juices ciders"},{"type":"farm","street":"989 N. Clayton Rd","city":"New Lebanon","state":"OH","zip":"45345","longitude":"-84.3954739","latitude":"39.7597210","name":"Cook's Garden","website":"http://cooksgardennewlebanon.com","facebook":"https://www.facebook.com/cooksgardennewlebanon","twitter":"","tags":"bedding plants fresh-vegetables"},{"type":"farm","street":"1517 Lafevre Road","city":"Geneva","state":"OH","zip":"44041","longitude":"-80.958817","latitude":"41.765378","name":"Covered Bridge Farms/Shimandle Grapes","website":"www.facebook.com/CoveredBridgeFarms","facebook":"","twitter":"","tags":"fresh-fruits"},{"type":"farm","street":"40949 State Route 558","city":"Leetonia","state":"OH","zip":"44431","longitude":"-80.727259","latitude":"40.839863","name":"Dandelion Lane Farm","website":"www.DandelionLaneFarm.com","facebook":"https://www.facebook.com/pages/Dandelion-Lane-Farm","twitter":"","tags":"canned preserved coffee tea eggs poultry fowl"},{"type":"farm","street":"3033 Dayton Rd NE","city":"Newark","state":"OH","zip":"43055","longitude":"-82.355769","latitude":"40.092689","name":"DAVIDSON PRODUCE & CATTLE FARM LLC","website":"www.davidsonproduceandcattlefarm.com","facebook":"","twitter":"","tags":"eggs poultry fowl red-meat non-poultry-meat"},{"type":"farm","street":"11275 Lovers Lane","city":"Mount Vernon","state":"OH","zip":"43050","longitude":"-82.531854","latitude":"40.402862","name":"Double 8 Cattle Company","website":"www.double8cattle.com","facebook":"https://www.facebook.com/double8cattle/","twitter":"","tags":"red-meat non-poultry-meat"},{"type":"farm","street":"753 E Maple St","city":"Clyde","state":"OH","zip":"43410","longitude":"-82.9570494","latitude":"41.3179418","name":"Eshleman Fruit Farm","website":"www.EshlemanFruitFarm.com","facebook":"https://www.facebook.com/Eshleman-Fruit-Farm-314477007606/?rf=157614694313691","twitter":"","tags":"bedding plants canned preserved fresh-fruits fresh-vegetables honey juices ciders"},{"type":"farm","street":"2175 W. 130th Street","city":"Hinckley ","state":"OH","zip":"44233","longitude":"-81.784668","latitude":"41.216353","name":"Family Roots Farm ","website":"www.familyrootsfarm.com","facebook":"RodSharpnack.FamilyRootsFarm","twitter":"","tags":"baked-goods canned preserved fresh-fruits fresh-vegetables juices ciders wild-harvested forest-products"},{"type":"farm","street":"6843 State Route 54","city":"Mechanicsburg","state":"OH","zip":"43044","longitude":"-83.6365576","latitude":"40.0222168","name":"Folck Family Farm","website":"folckfamilyfarm.net","facebook":"folckfamilyfarm","twitter":"","tags":"fresh-fruits fresh-vegetables honey maple-products"},{"type":"farm","street":"5959 Lambert Road","city":"Orient","state":"OH","zip":"43146","longitude":"-83.162686","latitude":"39.844156","name":"Folsom & Pine Farm","website":"www.folsomandpine.com","facebook":"https://www.facebook.com/folsomandpine","twitter":"https://www.twitter.com/FolsomPineFarm","tags":"bedding plants coffee tea herbs fresh-vegetables honey nursery-stock prepared-foods soap body-care"},{"type":"farm","street":"9791 Paragon Rd","city":"Centerville (Montgomery County)","state":"OH","zip":"45458","longitude":"-84.185969","latitude":"39.601443","name":"Foster's Farmhouse LLC","website":"www.fostersfarmhouse.com","facebook":"","twitter":"","tags":"canned preserved eggs fresh-vegetables honey maple-products red-meat non-poultry-meat"},{"type":"farm","street":"798 N. Medina Line Road","city":"Granger Township","state":"OH","zip":"44256","longitude":"-81.713905","latitude":"41.162239","name":"From The Water's Edge","website":"","facebook":"","twitter":"","tags":"baked-goods canned preserved eggs herbs fresh-fruits fresh-vegetables honey maple-products wild-harvested forest-products"},{"type":"farm","street":"1673 South State Route 605","city":"Sunbury","state":"OH","zip":"43074","longitude":"-82.804485","latitude":"40.194321","name":"Glass Rooster Cannery","website":"www.glassroostercannery.com","facebook":"www.facebook.com/glassroostercannery","twitter":"@glassrooster","tags":"bedding plants canned preserved crafts woodworking honey maple-products soap body-care"},{"type":"farm","street":"9600 Madison Avenue","city":"Cleveland ","state":"OH","zip":"44102","longitude":"-81.749955","latitude":"41.477146","name":"Good Earth","website":"","facebook":"","twitter":"","tags":"fresh-fruits fresh-vegetables"},{"type":"farm","street":"10220 Peck Rd","city":"Mantua","state":"OH","zip":"44255","longitude":"-81.2087330","latitude":"41.2694840","name":"Goodell Family Farm","website":"www.goodellfamilyfarm.com","facebook":"https://facebook.com/goodellfamilyfarm","twitter":"","tags":"maple-products"},{"type":"farm","street":"7201 Tucker Road","city":"Centerburg","state":"OH","zip":"43011","longitude":"-82.608500","latitude":"40.346711","name":"Granny B Farms LLC","website":"www.grannybfarm.com","facebook":"www.facebook.com/grannybfarms/","twitter":"","tags":"herbs fresh-fruits fresh-vegetables"},{"type":"farm","street":"18456 Pitts Rd","city":"Wellington","state":"OH","zip":"44090","longitude":"-82.2419060","latitude":"41.2160269","name":"Greener Pasture Farm","website":"","facebook":"Greener Pasture Farm","twitter":"","tags":"dairy products red-meat non-poultry-meat"},{"type":"farm","street":"7293 Phillipsburg Union Rd","city":"Brookville","state":"OH","zip":"45309","longitude":"-84.393040","latitude":"39.905200","name":"Hartman Heimstytte ","website":"Www.hartmanheimstytte.com","facebook":"Www.facebook.com/hartmanheimstytte","twitter":"","tags":"baked-goods canned preserved eggs fresh-fruits fresh-vegetables honey poultry fowl red-meat non-poultry-meat"},{"type":"farm","street":"13521 S. Dixie Hwy.","city":"Bowling Green","state":"OH","zip":"43402","longitude":"-83.652856","latitude":"41.350138","name":"Hayhurst Farm","website":"","facebook":"","twitter":"","tags":"eggs fish seafood"},{"type":"farm","street":"18375 State Rd","city":"North Royalton","state":"OH","zip":"44133","longitude":"-81.7160750","latitude":"41.2879379","name":"Heavenly Hill Farm","website":"","facebook":"","twitter":"","tags":"baked-goods canned preserved fresh-fruits fresh-vegetables honey maple-products"},{"type":"farm","street":"14811 Wollett Rd.","city":"Nelsonville","state":"OH","zip":"45764","longitude":"-82.276488","latitude":"39.423439","name":"Hembree Hollow Farm","website":"","facebook":"","twitter":"","tags":""},{"type":"farm","street":"9105 Township Road N2","city":"Napoleon","state":"OH","zip":"43545","longitude":"-84.039941","latitude":"41.363336","name":"Hetrick Honey Bees","website":"www.hetrickhoneybees.com","facebook":"","twitter":"","tags":"honey"},{"type":"farm","street":"16618 SR 33 East","city":"Wapakoneta ","state":"OH","zip":"45895","longitude":"-84.134766","latitude":"40.555566","name":"Hilltop Harvest Farm Self Serve Market","website":"www.hilltopharvestfarm.com","facebook":"Hilltop Harvest Farm","twitter":"","tags":"bedding plants fresh-fruits fresh-vegetables honey"},{"type":"farm","street":"16618 US 33","city":"Wapakoneta","state":"OH","zip":"45895","longitude":"-84.134697","latitude":"40.555814","name":"Hilltop Harvest Farm Self Serve Market","website":"hilltopharvestfarm@live.com","facebook":"www.facebook.com/hilltop-harvest-farm","twitter":"","tags":"bedding plants fresh-fruits fresh-vegetables"},{"type":"farm","street":"16618 US 33 East ","city":"Wapakoneta ","state":"OH","zip":"45895","longitude":"-84.134815","latitude":"40.555154","name":"Hilltop Harvest Farm Self Serve Market","website":"www.hilltopharvestfarm@live.com","facebook":"Hilltop Harvest Farm ","twitter":"","tags":"bedding plants cut-flowers fresh-fruits fresh-vegetables"},{"type":"farm","street":"12846 State Route 772","city":"Chillicothe","state":"OH","zip":"45601","longitude":"-83.013285","latitude":"39.301476","name":"Hirsch Fruit Farm","website":"www.hirschfruitfarm.com","facebook":"https://www.facebook.com/hirschfruitfarm","twitter":"","tags":"bedding plants canned preserved fresh-fruits fresh-vegetables honey juices ciders maple-products"},{"type":"farm","street":"9642 Randle Road","city":"Williamsport","state":"OH","zip":"43164","longitude":"-83.1295940","latitude":"39.6525000","name":"Honeyrun Farm","website":"www.honeyrunfarm.com","facebook":"https://www.facebook.com/honeyrunfarm","twitter":"","tags":"honey"},{"type":"farm","street":"2196 Jacoby Road","city":"Copley","state":"OH","zip":"44321","longitude":"-81.532148","latitude":"41.1259834","name":"Jacobs Heritage Farm","website":"www.JacobsHeritageFarm.com","facebook":"facebook.com/jacobsheritagefarm","twitter":"","tags":"bedding plants cut-flowers eggs herbs honey poultry fowl prepared-foods soap body-care wild-harvested forest-products"},{"type":"farm","street":"2091 State Route 321","city":"Sardinia ","state":"OH","zip":"45171","longitude":"-83.792210","latitude":"39.062666","name":"Jaybird Farms","website":"www.jaybirdfarms.com","facebook":"https://www.facebook.com/JaybirdFarms","twitter":"","tags":""},{"type":"farm","street":"2251 EAST 73 rd ,Street","city":"Cleveland ","state":"OH","zip":"44103","longitude":"-81.6380919","latitude":"41.4965696","name":"Ka-La Healing Garden Center","website":"http://ka-lahealinggardencenter.webs.com","facebook":"Ka-La Healing Garden Resource Center LLC","twitter":"","tags":"baked-goods bedding plants coffee tea cut-flowers herbs fresh-fruits fresh-vegetables prepared-foods soap body-care"},{"type":"farm","street":"3175 North Ridge Road","city":"Vermilion","state":"OH","zip":"44089","longitude":"-82.306465","latitude":"41.383635","name":"Kriegs Strawberry Farm Market","website":"","facebook":"Marsha Krieg ","twitter":"","tags":""},{"type":"farm","street":"20620 St. Rt. 676","city":"Marietta","state":"OH","zip":"45750","longitude":"-81.518072","latitude":"39.436996","name":"Lane's Farm Market and Orchard, LLC","website":"http://www.lanesfarmmarket.com/","facebook":"","twitter":"","tags":"baked-goods canned preserved coffee tea dairy products eggs fresh-fruits fresh-vegetables honey juices ciders maple-products pet-food prepared-foods soap body-care wine spirits beer hard-cider"},{"type":"farm","street":"2634 Smeltzer Rd","city":"Marion","state":"OH","zip":"43302","longitude":"-83.136091","latitude":"40.537152","name":"Lawrence Orchards","website":"www.lawrenceorchards.com","facebook":"https://www.facebook.com/LawrenceOrchards?ref=hl","twitter":"","tags":"baked-goods canned preserved crafts woodworking cut-flowers dairy products fresh-fruits fresh-vegetables grains flour honey juices ciders maple-products nuts prepared-foods"},{"type":"farm","street":"3602 Lima-Sandusky Rd","city":"Sandusky","state":"OH","zip":"44870","longitude":"-82.826537","latitude":"41.436443","name":"Link Farms","website":"","facebook":"","twitter":"","tags":""},{"type":"farm","street":"6179 Newton Falls Rd.","city":"Ravenna","state":"OH","zip":"44266","longitude":"-81.170132","latitude":"41.163216","name":"Lobdell Family Farm","website":"","facebook":"","twitter":"","tags":"eggs"},{"type":"farm","street":"576 North State Route 560","city":"Urbana","state":"OH","zip":"43078","longitude":"-83.838212","latitude":"40.119300","name":"Louden Family Orchard","website":"","facebook":"","twitter":"","tags":"honey"},{"type":"farm","street":"P.O. Box 7","city":"Jeromesville","state":"OH","zip":"44840","longitude":"-82.155647","latitude":"40.821676","name":"Malabar Peach Orchard","website":"ohiopeaches.com","facebook":"","twitter":"","tags":""},{"type":"farm","street":"13262 Chardon Windsor Rd.","city":"Chardon","state":"OH","zip":"44024","longitude":"-81.1647140","latitude":"41.5773560","name":"Maple Valley Sugarbush","website":"www.maplevalleysugarbush.com","facebook":"https://www.facebook.com/pages/Maple-Valley-Sugarbush-Farm/141855572516431?ref=hl","twitter":"","tags":"honey maple-products"},{"type":"farm","street":"8876 Congress Rd Lodi, OH 44254","city":"Lodi","state":"OH","zip":"44254","longitude":"-82.054524","latitude":"41.028575","name":"Marian Kay Berry Farm","website":"https://www.mkberryfarm.com","facebook":"https://www.facebook.com/MarianKayBerryFarm","twitter":"","tags":"baked-goods canned preserved"},{"type":"farm","street":"11610 Waterville-swanton","city":"Whitehouse","state":"OH","zip":"43571","longitude":"-83.820351","latitude":"41.526752","name":"Meiring Farm","website":"","facebook":"","twitter":"","tags":"cut-flowers fresh-vegetables"},{"type":"farm","street":"260 Baker Road","city":"Clarksville","state":"OH","zip":"45113","longitude":"-83.9404760","latitude":"39.3764880","name":"Messuri Family Farm LLC","website":"http://www.messurifamilyfarm.com","facebook":"https://www.facebook.com/pages/Messuri-Family-Farm/262765327140695?ref=hl","twitter":"https://twitter.com/MessuriFmlyFarm","tags":"poultry fowl"},{"type":"farm","street":"497 West Main Road","city":"Conneaut","state":"OH","zip":"44030","longitude":"-80.613060","latitude":"41.927312","name":"Northridge Blueberries LLC","website":"www.northridgeblueberries.com","facebook":"https://facebook.com/NorthridgeBlueberries","twitter":"","tags":"fresh-fruits"},{"type":"farm","street":"8913 Mapleton St SE","city":"East Canton","state":"OH","zip":"44730","longitude":"-81.236584","latitude":"40.751443","name":"Out on  a Limb Farm","website":"","facebook":"","twitter":"","tags":"canned preserved dry beans herbs fresh-fruits fresh-vegetables"},{"type":"farm","street":"6275 Thompson Clark","city":"Bristolville","state":"OH","zip":"44402","longitude":"-80.835575","latitude":"41.388323","name":"P. Moore Acres","website":"","facebook":"https://www.facebook.com/Pmooreacres/","twitter":"","tags":""},{"type":"farm","street":"6167 Winchell Rd.","city":"Hiram","state":"OH","zip":"44234","longitude":"-81.169391","latitude":"41.343496","name":"Polecat Pines Mushroom Farm, LLC","website":"www.polecatpines.com","facebook":"https://www.facebook.com/PolecatPinesMushroomFarm","twitter":"","tags":"honey mushrooms"},{"type":"farm","street":"18802 State Road","city":"North Royalton","state":"OH","zip":"44133","longitude":"-81.724295","latitude":"41.281938","name":"Purple Skies Homestead","website":"http://www.purpleslieshomestead.com","facebook":"purpleskieshomestead@gmail.com","twitter":"","tags":"baked-goods canned preserved eggs fresh-fruits fresh-vegetables"},{"type":"farm","street":"8403 Mason Road","city":"Berlin Heights","state":"OH","zip":"44814","longitude":"-82.473395","latitude":"41.337620","name":"Quarry Hill Orchards","website":"http://quarryhillorchards.com/","facebook":"https://www.facebook.com/pages/Quarry-Hill-Orchards/538012959591189","twitter":"","tags":"baked-goods bedding plants canned preserved coffee tea cut-flowers fresh-fruits fresh-vegetables honey juices ciders maple-products nuts"},{"type":"farm","street":"5561 CR 1950","city":"Stryker","state":"OH","zip":"43557","longitude":"-84.460299","latitude":"41.493370","name":"R Farm of Northwest Ohio, LLC","website":"www.rfarmnwo.com","facebook":"facebook.com/rfarmnwo","twitter":"","tags":"red-meat non-poultry-meat"},{"type":"farm","street":"2464 Townline Road","city":"Madison","state":"OH","zip":"44057","longitude":"-81.104680","latitude":"41.800121","name":"Rainbow Farms","website":"www.rainbowfarmsonline.com","facebook":"www.facebook.com/rainbowfarmsohio","twitter":"","tags":"canned preserved herbs fresh-fruits honey juices ciders maple-products soap body-care"},{"type":"farm","street":"7271 Pearl Rd SE","city":"Amsterdam","state":"OH","zip":"43903","longitude":"-80.9398465","latitude":"40.5013874","name":"Rax and Trax Farms LLC","website":"www.raxandtraxfarms.com","facebook":"","twitter":"","tags":"fresh-vegetables red-meat non-poultry-meat"},{"type":"farm","street":"5488 Kinsman Rd (SR 87)","city":"Middlefield","state":"OH","zip":"44062","longitude":"-80.995559","latitude":"41.458943","name":"Ridgeview Farm","website":"www.ridgeviewfarm.com","facebook":"https://www.facebook.com/pages/Ridgeview-Farm-and-Tours/118515271492395","twitter":"","tags":"canned preserved fresh-fruits fresh-vegetables"},{"type":"farm","street":"3336 Columbus Rd.","city":"Springfield","state":"OH","zip":"45503","longitude":"-83.748269","latitude":"39.939077","name":"Root Down Acres, LLC","website":"www.RootDownAcres.com","facebook":"https://www.facebook.com/rootdownacres","twitter":"https://www.twitter.com/rootdownacres","tags":""},{"type":"farm","street":"1022 State Route 43","city":"Mogadore","state":"OH","zip":"44260","longitude":"-81.347054","latitude":"41.017294","name":"Rufener Hilltop Farms","website":"rufeners.com","facebook":"","twitter":"","tags":"baked-goods bedding plants canned preserved eggs fresh-fruits fresh-vegetables honey maple-products"},{"type":"farm","street":"2942 Elder Road Ne","city":"Lancaster","state":"OH","zip":"43130","longitude":"-82.489922","latitude":"39.763103","name":"Ruffwing Farms","website":"www.ruffwingfarms.com","facebook":"","twitter":"","tags":""},{"type":"farm","street":"5950 Shannon Rd","city":"Canal Winchester","state":"OH","zip":"43110","longitude":"-82.831925","latitude":"39.893120","name":"Schacht Farm Market","website":"mylocalfarm.us","facebook":"https://www.facebook.com/SchachtFarmMarket","twitter":"https://www.twitter.com/farm_market","tags":"fresh-fruits fresh-vegetables honey"},{"type":"farm","street":"5024 Jacksonburg Road","city":"Trenton","state":"OH","zip":"45067","longitude":"-84.501404","latitude":"39.514640","name":"Schaefers Farm Market   ","website":"www.schaefersfarmmarket.com","facebook":"https://www.facebook.com/SchaefersCSA/","twitter":"","tags":"baked-goods bedding plants canned preserved cut-flowers eggs herbs fresh-fruits fresh-vegetables honey poultry fowl prepared-foods"},{"type":"farm","street":"4282 State Road","city":"Medina","state":"OH","zip":"44256","longitude":"-81.7072720","latitude":"41.1587370","name":"Schmidt Family Farms","website":"Schmidt Family Farms.org","facebook":"Schmidt family Farms","twitter":"","tags":"bedding plants eggs fresh-vegetables honey poultry fowl"},{"type":"farm","street":"19009 Ravenna Rd | State Route 44","city":"Auburn Twp.","state":"OH","zip":"44023","longitude":"-81.219517","latitude":"41.352165","name":"Sirna's Farm & Market ","website":"www.sirnasfarm.com","facebook":"www.facebook.com/sirnasfarm.oh","twitter":"","tags":"baked-goods canned preserved coffee tea crafts woodworking cut-flowers dairy products dry beans eggs herbs fresh-fruits fresh-vegetables grains flour honey juices ciders maple-products mushrooms nuts poultry fowl prepared-foods red-meat non-poultry-meat soap body-care wine spirits beer hard-cider"},{"type":"farm","street":"4799 Fisher Road","city":"Athens","state":"OH","zip":"45701","longitude":"-82.143053","latitude":"39.268587","name":"The Gold Family Farm","website":"","facebook":"https://www.facebook.com/pages/The-Gold-Family-Farm/210127155664647","twitter":"","tags":"fresh-vegetables"},{"type":"farm","street":"7255 US highway 42 ","city":"Plain City","state":"OH","zip":"43064","longitude":"-83.295379","latitude":"40.047682","name":"The Orchard & Company, LLC","website":"www.theorchardandcompany.com","facebook":"","twitter":"","tags":"fresh-fruits"},{"type":"farm","street":"10915 Main Road","city":"Berlin Heights","state":"OH","zip":"44814","longitude":"-82.4276890","latitude":"41.3286520","name":"The Stem Shire","website":"Www.stemshire.com","facebook":"The stemshire","twitter":"","tags":"cut-flowers eggs honey"},{"type":"farm","street":"22867 Kellogg Road","city":"Grand Rapids","state":"OH","zip":"43522","longitude":"-83.842096","latitude":"41.415294","name":"Thurmans' Farm Market","website":"Thurmansfarmmarket.com","facebook":"https://www.facebook.com/pages/Thurmans-Farm-Market/133871850093087","twitter":"","tags":"canned preserved cut-flowers fresh-fruits fresh-vegetables honey"},{"type":"farm","street":"3600 Allard rd.","city":"Medina","state":"OH","zip":"44256","longitude":"-81.6957089","latitude":"41.1779940","name":"Tim's Turkey's/Stein Farm LLC.","website":"www.timsturkeys.com","facebook":"","twitter":"","tags":"poultry fowl"},{"type":"farm","street":"4603 State Route 193","city":"Kingsville","state":"OH","zip":"44048","longitude":"-80.666608","latitude":"41.855468","name":"Triple C Farm","website":"","facebook":"SEARCH @TRIPLE C FARM MARKET","twitter":"","tags":"baked-goods canned preserved crafts woodworking dairy products eggs fresh-fruits fresh-vegetables maple-products poultry fowl red-meat non-poultry-meat"},{"type":"farm","street":"7400 Given Road","city":"Cincinnati ","state":"OH","zip":"45243","longitude":"-84.320358","latitude":"39.190080","name":"Turner Farm Inc.","website":"http://www.turnerfarm.org/","facebook":"https://www.facebook.com/pages/Turner-Farm/455826481129640","twitter":"","tags":"bedding plants cut-flowers dry beans eggs herbs fresh-fruits fresh-vegetables honey mushrooms poultry fowl red-meat non-poultry-meat"},{"type":"farm","street":"18170 Mush Run Road","city":"Stewart","state":"OH","zip":"45778","longitude":"-81.9475089","latitude":"39.3380933","name":"Vest Berries and Produce","website":"www.vestberries.com","facebook":"https://www.facebook.com/pages/Vest-Berries/162080763828140","twitter":"","tags":""},{"type":"farm","street":"11391 Franks Rd","city":"Auburn Twp","state":"OH","zip":"44023","longitude":"-81.231662","latitude":"41.421487","name":"Voytko Berry Farm","website":"voytkofarms.com","facebook":"","twitter":"","tags":"fresh-fruits fresh-vegetables honey maple-products"},{"type":"farm","street":"14950 State Route 45","city":"Lisbon","state":"OH","zip":"44432","longitude":"-80.698246","latitude":"40.685548","name":"W Bench Farms, LLC","website":"www.wbenchfarms.com","facebook":"https://www.facebook.com/W-Bench-Farms-LLC-262282387063/","twitter":"","tags":"eggs poultry fowl red-meat non-poultry-meat"},{"type":"farm","street":"13 Denver Road","city":"Waverly","state":"OH","zip":"45690","longitude":"-82.982336","latitude":"39.138281","name":"Way Farms","website":"www.way-farms.com","facebook":"www.facebook.com/wayfarm","twitter":"","tags":"bedding plants canned preserved coffee tea herbs fresh-fruits fresh-vegetables honey"},{"type":"farm","street":"2398 Weymouth Road","city":"Hinckley","state":"OH","zip":"44233","longitude":"-81.759425","latitude":"41.211152","name":"Weymouth Farms & Orchard, Winery","website":"www.weymouthfarms.com","facebook":"https://www.facebook.com/weymouthfarms/","twitter":"","tags":"fresh-fruits wine spirits beer hard-cider"},{"type":"farm","street":"4169 Swigart Road","city":"Kettering","state":"OH","zip":"45440","longitude":"-84.101116","latitude":"39.674614","name":"Whispering Pines Farm","website":"","facebook":"https://www.facebook.com/WhisperingPinesFarm","twitter":"","tags":"eggs honey"},{"type":"farm","street":"9249 Youngstown Salem Rd","city":"Canfield","state":"OH","zip":"44406","longitude":"-80.8067460","latitude":"40.9841580","name":"White House Fruit  Farm","website":"www.whitehousefruitfarm.com","facebook":"https://www.facebook.com/whitehousefruitfarm","twitter":"","tags":"baked-goods canned preserved coffee tea dairy products eggs fresh-fruits fresh-vegetables honey juices ciders maple-products prepared-foods"},{"type":"farm","street":"110 E. Yellow Springs Fairfield Rd.","city":"Yellow Springs","state":"OH","zip":"45387","longitude":"-83.9194051","latitude":"39.8137320","name":"Wild Hare Natural Farm","website":"www.whnf.biz","facebook":"https://www.facebook.com/WildHareNaturalFarm","twitter":"","tags":"poultry fowl red-meat non-poultry-meat"},{"type":"farm","street":"3381 US 68 N","city":"BELLEFONTAINE","state":"OH","zip":"43311","longitude":"-83.745878","latitude":"40.409166","name":"Wishwell Farms","website":"wishwellfarms.com","facebook":"https://www.facebook.com/WishwellFarms","twitter":"twitter.com/wishwellfarms","tags":"canned preserved eggs fresh-fruits fresh-vegetables honey"},{"type":"farm","street":"17125 State Route 152","city":"Toronto","state":"OH","zip":"43964","longitude":"-80.657942","latitude":"40.504650","name":"Zim's Raspberry Patch","website":"","facebook":"Susan Gates Zimmerman","twitter":"","tags":"fresh-fruits"},{"type":"market","name":"2nd Street Market - Five Rivers MetroPark","website":"http://www.metroparks.org","facebook":"https://www.facebook.com/2ndStreetMarket/","twitter":"","street":"600 E. 2nd Street","city":"Dayton","state":"OH","zip":"45402","longitude":"-84.181030","latitude":"39.762593","tags":"organic baked goods cheese crafts flowers eggs herbs vegetables honey jams maple meat nuts plants poultry prepared-foods soap coffee beans fruits grains juices mushrooms pet food wild"},{"type":"market","name":"Adams County Farmer's Market","website":"","facebook":"facebook.com/acohfarmersmarket","twitter":"","street":"110 W. Main St. ","city":"West Union","state":"OH","zip":"45693","longitude":"-83.546357","latitude":"38.795296","tags":"baked goods flowers eggs herbs vegetables honey jams maple meat poultry soap trees coffee fruits"},{"type":"market","name":"Athens Farmers Market","website":"http://www.athensfarmersmarket.org","facebook":"https://www.facebook.com/athensohfarmersmarket/","twitter":"@athensohfarmersmarket","street":"1002 East State Street","city":"Athens","state":"OH","zip":"45701","longitude":"-82.056622","latitude":"39.336038","tags":"organic baked goods cheese flowers eggs herbs vegetables honey jams maple meat nuts plants poultry prepared-foods soap trees wine coffee beans fruits grains mushrooms pet food wild"},{"type":"market","name":"Berkey Farmers Market","website":"","facebook":"","twitter":"","street":"12290 Sylvania-Metamora Rd","city":"Berkey","state":"OH","zip":"43504","longitude":"-83.839418","latitude":"41.715538","tags":"baked goods cheese crafts herbs vegetables honey jams maple soap wine fruits"},{"type":"market","name":"Bexley Farmers Market","website":"http://www.bexleyfarmersmarket.org","facebook":"","twitter":"","street":"E Main St and S Dawson Ave","city":"Bexley","state":"OH","zip":"43209","longitude":"-82.935745","latitude":"39.957135","tags":"organic baked goods flowers eggs seafood vegetables honey jams meat poultry prepared-foods coffee fruits pet food"},{"type":"market","name":"Blue Ash Farmers Market","website":"http://summitparkblueash.com/residents/farmers_market.php","facebook":"https://www.facebook.com/blueashfarmersmarket/","twitter":"","street":"4335 Glendale Milford Road","city":"Blue Ash","state":"OH","zip":"45242","longitude":"-84.389892","latitude":"39.251798","tags":"baked goods crafts flowers vegetables honey jams prepared-foods fruits"},{"type":"market","name":"Bluffton Farmers Market","website":"https://www.explorebluffton.com/farmers-market","facebook":"https://www.facebook.com/farmersmarketblufftonohio/","twitter":"","street":"102 S Main St","city":"Bluffton","state":"OH","zip":"45817","longitude":"-83.892721","latitude":"40.893082","tags":"organic baked goods flowers vegetables honey jams maple meat plants soap trees fruits"},{"type":"market","name":"Bronzeville Growers Market","website":"","facebook":"https://www.facebook.com/2018BGM/?modal=admin_todo_tour","twitter":"","street":"925 E. Mt. Vernon Avenue","city":"Columbus ","state":"OH","zip":"43203","longitude":"-82.976997","latitude":"39.971390","tags":"baked goods crafts herbs vegetables jams prepared-foods soap fruits mushrooms"},{"type":"market","name":"Canal Market District","website":"https://www.canalmarketdistrict.org/","facebook":"https://www.facebook.com/canalmarketdistrict","twitter":"","street":"36 East Canal Street","city":"Newark","state":"OH","zip":"43055","longitude":"-82.401032","latitude":"40.056586","tags":"organic baked goods cheese flowers eggs herbs vegetables honey jams maple prepared-foods soap trees coffee beans fruits juices mushrooms pet food wild"},{"type":"market","name":"Canton Farmers' Market","website":"http://www.CantonFarmersMarket.com","facebook":"www.facebook.com/CantonOhioFarmersMarket","twitter":"","street":"300 Market Ave N","city":"Canton","state":"OH","zip":"44702","longitude":"-81.374888","latitude":"40.800650","tags":"baked goods cheese crafts flowers eggs herbs vegetables honey jams maple meat nuts plants poultry prepared-foods soap trees coffee fruits mushrooms pet food"},{"type":"market","name":"Celina Farmers Market","website":"http://www.celinafarmersmarket.com","facebook":"https://www.facebook.com/CelinaFarmersMarket","twitter":"","street":"1001 W Market St.","city":"Celina","state":"OH","zip":"45822","longitude":"-84.582827","latitude":"40.549633","tags":"baked goods crafts eggs herbs vegetables honey jams maple meat plants poultry prepared-foods soap wine fruits pet food"},{"type":"market","name":"City of Seven Hills Farmers Market","website":"http://www.sevenhillsohio.org/en-US/farmers-market.aspx","facebook":"https://www.facebook.com/cityofsevenhills?fref=ts","twitter":"https://twitter.com/SevenHillsCity","street":"7221 Broadview Road","city":"Seven Hills","state":"OH","zip":"44131","longitude":"-81.684217","latitude":"41.369164","tags":"organic baked goods herbs vegetables honey maple plants prepared-foods soap trees fruits"},{"type":"market","name":"Clintonville Farmers' Market","website":"http://www.clintonvillefarmersmarket.org","facebook":"https://www.facebook.com/clintonvillefarmersmarket","twitter":"","street":"N High St and W Dunedin Rd","city":"Columbus","state":"OH","zip":"43214","longitude":"-83.016501","latitude":"40.034269","tags":"organic baked goods cheese flowers eggs seafood herbs vegetables honey jams maple meat nuts plants poultry prepared-foods coffee fruits grains mushrooms"},{"type":"market","name":"Countryside Farmers' Market at Highland Square","website":"http://cvcountryside.org","facebook":"https://www.facebook.com/countrysidefoodandfarms/","twitter":"https://twitter.com/countrysideohio","street":"1175 W Exchange St","city":"Akron","state":"OH","zip":"44302","longitude":"-81.553272","latitude":"41.098698","tags":"baked goods cheese flowers eggs herbs vegetables honey jams meat nuts soap coffee fruits mushrooms"},{"type":"market","name":"Countryside Farmers' Market at Howe Meadow","website":"http://cvcountryside.org","facebook":"https://www.facebook.com/countrysidefoodandfarms","twitter":"https://twitter.com/countrysideohio","street":"4040 Riverview Rd.","city":"Peninsula","state":"OH","zip":"44264","longitude":"-81.583614","latitude":"41.189312","tags":"organic baked goods cheese crafts flowers eggs herbs vegetables honey jams maple meat nuts plants poultry prepared-foods soap coffee beans fruits grains juices mushrooms pet food"},{"type":"market","name":"Countryside Public Market","website":"http://cvcountryside.org","facebook":"https://www.facebook.com/countrysidefoodandfarms/","twitter":"https://twitter.com/countrysideohio","street":"21 Furnace Street","city":"Akron","state":"OH","zip":"44308","longitude":"-81.515871","latitude":"41.088850","tags":"baked goods cheese flowers eggs vegetables honey jams meat nuts plants prepared-foods coffee fruits juices pet food"},{"type":"market","name":"Countryside Winter Farmers' Market","website":"http://cvcountryside.org","facebook":"https://www.facebook.com/countrysidefoodandfarms/","twitter":"https://twitter.com/countrysideohio","street":"2315 Ira Rd.","city":"Akron","state":"OH","zip":"44333","longitude":"-81.589922","latitude":"41.192676","tags":"organic baked goods cheese crafts flowers eggs herbs vegetables honey jams maple meat nuts poultry prepared-foods soap coffee beans fruits grains juices mushrooms pet food"},{"type":"market","name":"Croghan Colonial Bank Farmers Market","website":"","facebook":"https://www.facebook.com/DowntownFremontInc","twitter":"https://twitter.com/DowntownFremont","street":"Front Street and Garrison Street","city":"Fremont","state":"OH","zip":"43420","longitude":"-83.1135499","latitude":"41.3454080","tags":"baked goods cheese crafts flowers eggs herbs vegetables honey jams maple meat plants prepared-foods soap trees coffee fruits juices pet food"},{"type":"market","name":"Cuyahoga Falls Farmers' Market (Farmers' Market in the Falls)","website":"http://www.farmersmarketinthefalls.weebly.com","facebook":"Farmers' Market in the Falls","twitter":"","street":"1817 Front Street","city":"Cuyahoga Falls ","state":"OH","zip":"44222","longitude":"-81.483560","latitude":"41.130404","tags":"baked goods cheese crafts eggs herbs vegetables honey jams nuts prepared-foods soap coffee fruits grains juices pet food wild"},{"type":"market","name":"DOWNTOWN LIMA FARMERS' MARKET","website":"","facebook":"Downtown Lima Farmers Market","twitter":"","street":"7 Town Square","city":"Lima","state":"OH","zip":"45801","longitude":"-84.1058237","latitude":"40.7395472","tags":"baked goods flowers herbs vegetables honey plants soap coffee fruits"},{"type":"market","name":"Farmers' gateway Market","website":"","facebook":"https://www.facebook.com/Farmers-Gateway-Market-250248165001885/","twitter":"","street":"Eastern Gateway Community College, 4000 Sunset Boulevard","city":"Steubenville","state":"OH","zip":"43952","longitude":"-80.669759","latitude":"40.377613","tags":"baked goods herbs vegetables jams meat plants trees fruits"},{"type":"market","name":"Fayette County Farmers Market","website":"https://fayettecountyfarmersmarket.wordpress.com/","facebook":"https://www.facebook.com/OHFCFM/","twitter":"https://twitter.com/FAYCOFARMERSMKT","street":"101 E East St","city":"Washington Court House","state":"OH","zip":"43160","longitude":"-83.427938","latitude":"39.53886","tags":"baked goods crafts flowers eggs herbs vegetables honey jams meat plants soap trees fruits"},{"type":"market","name":"Fibonacci's Mount Healthy Farmers Market","website":"http://fibbrew.com/farmers-market-application/","facebook":"https://www.facebook.com/events/722787851585113/","twitter":"","street":"1445 Compton Road","city":"Cincinnati","state":"OH","zip":"45231","longitude":"-84.540950","latitude":"39.231610","tags":"baked goods cheese eggs herbs vegetables honey jams maple meat poultry prepared-foods soap wine coffee fruits juices"},{"type":"market","name":"Fifth Street Farmers' Market","website":"","facebook":"FifthStreetFarmersMarket","twitter":"","street":"West Fifth Street","city":"Sycamore","state":"OH","zip":"44882","longitude":"-83.1700053","latitude":"40.9509375","tags":"baked goods crafts eggs herbs vegetables honey jams plants soap trees fruits"},{"type":"market","name":"Franklin Park Conservatory and Botanical Gardens Farmers' Market","website":"https://www.fpconservatory.org/education-programs/outreach-programs/farmers-market/","facebook":"https://www.facebook.com/FPConservatory","twitter":"https://twitter.com/FPConservatory","street":"1777 East Broad Street","city":"Columbus","state":"OH","zip":"43203","longitude":"-82.951398","latitude":"39.966119","tags":"baked goods flowers eggs herbs vegetables honey jams prepared-foods soap fruits"},{"type":"market","name":"Hamilton's Historic Farmers Market","website":"http://www.hamiltonshistoricfarmersmarket.com","facebook":"Hamilton's Historic Farmer's Market","twitter":"","street":"345 High Street ","city":"Hamilton","state":"OH","zip":"45011","longitude":"-84.565522","latitude":"39.394328","tags":"baked goods crafts flowers eggs vegetables honey jams plants soap coffee fruits"},{"type":"market","name":"Hancock County Farmers' Market","website":"https://hancockfarmmarket.wixsite.com/home","facebook":"@HancockCountyFarmersMarket","twitter":"","street":"200 West Main Cross","city":"Findlay","state":"OH","zip":"45840","longitude":"-83.653004","latitude":"41.039589","tags":"baked goods crafts flowers herbs vegetables honey jams maple meat nuts plants poultry prepared-foods soap trees coffee fruits juices mushrooms pet food"},{"type":"market","name":"HAPI Fresh Farmers' Market ","website":"","facebook":"","twitter":"","street":"647 E. Market Street","city":"Akron","state":"OH","zip":"44304","longitude":"-81.521429","latitude":"41.080456","tags":"organic baked goods crafts vegetables honey jams maple soap coffee fruits"},{"type":"market","name":"HAPI Fresh Farmers' Market ","website":"http://asiaohio.org ","facebook":"","twitter":"","street":"381 Ontario Street","city":"Akron ","state":"OH","zip":"44310","longitude":"-81.521429","latitude":"41.080456","tags":"organic baked goods crafts flowers vegetables honey jams maple plants prepared-foods fruits"},{"type":"market","name":"Haymaker Farmers' Market","website":"http://haymakermarket.com/","facebook":"http://www.facebook.com/haymaker.farmers.market","twitter":"https://twitter.com/haymakermarket","street":"Franklin Avenue & Summit Street","city":"Kent","state":"OH","zip":"44240","longitude":"-81.360033","latitude":"41.150692","tags":"organic baked goods cheese crafts flowers eggs herbs vegetables honey jams maple meat nuts plants poultry prepared-foods soap trees coffee fruits juices mushrooms pet food"},{"type":"market","name":"Haymaker Farmers' Market","website":"http://haymakermarket.com","facebook":"https://www.facebook.com/haymaker.farmers.market","twitter":"https://twitter.com/haymakermarket","street":"1435 E Main St, ","city":"Kent","state":"OH","zip":"44240","longitude":"-81.337712","latitude":"41.155218","tags":"organic baked goods cheese crafts flowers eggs herbs vegetables honey jams maple meat nuts plants poultry prepared-foods soap trees coffee fruits juices mushrooms pet food"},{"type":"market","name":"Hyde Park Farmers' Market","website":"http://www.HydeParkFarmersMarket.com","facebook":"https://www.facebook.com/HydeParkFarmersMarket/","twitter":"","street":"2700 Erie Avenue","city":"Cincinnati","state":"OH","zip":"45208","longitude":"-84.442330","latitude":"39.139602","tags":"organic baked goods cheese flowers eggs herbs vegetables honey jams maple meat plants poultry prepared-foods soap coffee fruits grains mushrooms pet food wild"},{"type":"market","name":"Lakewood Earth and Food (LEAF) Community Farmers' Market","website":"http://www.leafcommunity.org","facebook":"https://www.facebook.com/pg/leafcommunity.org/posts/","twitter":"","street":"15425 Detroit","city":"Lakewood","state":"OH","zip":"44107","longitude":"-81.8042660","latitude":"41.4845390","tags":"baked goods cheese crafts flowers eggs herbs vegetables honey jams maple meat nuts poultry prepared-foods soap coffee beans fruits grains"},{"type":"market","name":"Lancaster Farmers Market","website":"https://www.lancasterohfarmersmarket.org/","facebook":"https://www.facebook.com/lancasterohfarmersmarket","twitter":"","street":"West Chestnut Street","city":"Lancaster","state":"OH","zip":"43130","longitude":"-82.603853","latitude":"39.712631","tags":"baked goods cheese crafts flowers eggs vegetables honey jams maple meat plants poultry soap coffee fruits juices pet food"},{"type":"market","name":"Lettuce Eat Well Farmers' Market","website":"http://www.lewfm.org","facebook":"lewfm","twitter":"","street":"4040 Harrison Ave","city":"Cincinnati","state":"OH","zip":"45211","longitude":"-84.6172030","latitude":"39.1587027","tags":"baked goods cheese crafts flowers eggs herbs vegetables honey jams maple meat plants poultry prepared-foods soap beans fruits grains pet food"},{"type":"market","name":"Loveland Farmers Market","website":"http://www.lovelandfm.com","facebook":"https://www.facebook.com/LovelandFarmersMarket","twitter":"","street":"205 Broadway Street","city":"Loveland","state":"OH","zip":"45140","longitude":"-84.2599240","latitude":"39.2663880","tags":"organic baked goods cheese flowers eggs herbs vegetables honey jams meat nuts plants poultry prepared-foods soap coffee fruits juices mushrooms pet food"},{"type":"market","name":"Main Street Wadsworth Farmers Market","website":"","facebook":"https://www.facebook.com/MainStreetWadsworthFarmersMarket/","twitter":"","street":"151 Main Street","city":"Wadsworth","state":"OH","zip":"44281","longitude":"-81.732318","latitude":"41.028681","tags":"baked goods cheese crafts flowers herbs vegetables honey jams maple meat plants trees coffee fruits pet food"},{"type":"market","name":"Marion Ohio Market","website":"","facebook":"Marion Ohio Market","twitter":"","street":"Main and Church ","city":"Marion ","state":"OH","zip":"43302","longitude":"-83.122972","latitude":"40.593304","tags":"baked goods crafts eggs vegetables honey jams maple prepared-foods soap fruits"},{"type":"market","name":"Market on the Green","website":"https://whitehall-oh.us/581/Market-on-the-Green","facebook":"@CityofWhiehall","twitter":"","street":"105 Norton Park Drive","city":"Whitehall","state":"OH","zip":"43213","longitude":"-82.875408","latitude":"39.974230","tags":"baked goods cheese flowers eggs herbs vegetables honey jams maple soap fruits grains mushrooms"},{"type":"market","name":"Medina Square Farmers Market","website":"http://www.medinafarmersmarket.com","facebook":"medina farmers market","twitter":"","street":"39 public square, suite 305","city":"medina","state":"OH","zip":"44256","longitude":"-81.869513","latitude":"41.134636","tags":"organic baked goods cheese flowers eggs herbs vegetables honey maple meat nuts prepared-foods soap coffee fruits juices"},{"type":"market","name":"Meigs County Farmers' Market","website":"http://www.meigscountyfarmersmarket.com","facebook":"www.facebook.com/meigscountyfarmersmarket","twitter":"","street":"PO Box 702","city":"Pomeroy","state":"OH","zip":"45769","longitude":"-82.034026","latitude":"39.026596","tags":"organic baked goods crafts flowers eggs herbs vegetables honey jams plants soap coffee fruits"},{"type":"market","name":"Morgan County Farmers Market","website":"http://morgan.osu.edu","facebook":"Morgan County Farmers Market","twitter":"","street":"Intersection Main and Kennebec","city":"McConnelsville","state":"OH","zip":"43756","longitude":"-81.853276","latitude":"39.648855","tags":"baked goods crafts vegetables plants fruits"},{"type":"market","name":"New Albany Farmers Market","website":"http://www.healthynewalbany.org/farmers-market","facebook":"https://www.facebook.com/nafarmersmarket","twitter":"","street":"200 Market Street (outdoor); 150 West Main Street (indoor)","city":"New Albany","state":"OH","zip":"43054","longitude":"-82.815383","latitude":"40.081412","tags":"organic baked goods cheese crafts flowers eggs seafood herbs vegetables honey jams maple meat nuts poultry prepared-foods soap wine coffee fruits grains juices mushrooms pet food wild"},{"type":"market","name":"New Albany Farmers Market","website":"https://healthynewalbany.org/farmers-market/","facebook":"https://www.facebook.com/nafarmersmarket","twitter":"n/a","street":"Market Square, Market St.","city":"New Albany","state":"OH","zip":"43054","longitude":"-82.815420","latitude":"40.081380","tags":"baked goods cheese crafts flowers eggs herbs vegetables honey jams maple meat nuts poultry prepared-foods soap wine coffee fruits grains juices mushrooms pet food wild"},{"type":"market","name":"North Canton Farmers' Market","website":"http://www.NCantonFarmersMarket.com","facebook":"https://www.facebook.com/NorthCantonFarmersMarket/","twitter":"","street":"1447 North Main Street","city":"North Canton","state":"OH","zip":"44720","longitude":"-81.409572","latitude":"40.892548","tags":"baked goods cheese crafts eggs vegetables honey jams maple meat nuts plants poultry prepared-foods soap coffee fruits grains mushrooms pet food"},{"type":"market","name":"North Canton Farmers' Market","website":"http://www.NCantonFarmersMarket.com","facebook":"https://www.facebook.com/NorthCantonFarmersMarket/","twitter":"","street":"1000 West Maple St","city":"North Canton","state":"OH","zip":"44720","longitude":"-81.417769","latitude":"40.875871","tags":"baked goods crafts flowers eggs herbs vegetables honey jams maple meat nuts plants poultry prepared-foods soap trees coffee fruits mushrooms pet food"},{"type":"market","name":"North End Farmers Market","website":"http://www.necic-ohio.org","facebook":"www.facebook.com/nefm2014/","twitter":"twitter.com/necic","street":"417 Blust Ave.","city":" Mansfield ","state":"OH","zip":"44903","longitude":"-82.5247140","latitude":"40.7703620","tags":"organic baked goods cheese crafts flowers herbs vegetables honey jams maple meat soap fruits juices"},{"type":"market","name":"North End Farmers Market","website":"http://necic-ohio.org","facebook":"North End Farmers Market","twitter":"","street":"311 Bowman St.","city":"Mansfield","state":"OH","zip":"44903","longitude":"-82.523336","latitude":"40.766123","tags":"baked goods cheese vegetables honey jams poultry fruits"},{"type":"market","name":"North Market Farmers' Market","website":"http://northmarket.com","facebook":"https://www.facebook.com/NorthMarket/","twitter":"https://twitter.com/NorthMarket","street":"59 Spruce Street","city":"Columbus","state":"OH","zip":"43215","longitude":"-83.0043304","latitude":"39.9718961","tags":"baked goods flowers eggs vegetables honey jams maple plants soap fruits mushrooms"},{"type":"market","name":"Northside Farmers Market","website":"http://www.northsidefm.org","facebook":"https://www.facebook.com/CinciNorthsideFarmersMarket","twitter":"","street":"4222 Hamilton Ave","city":"Cincinnati ","state":"OH","zip":"45223","longitude":"-84.539984","latitude":"39.163947","tags":"baked goods flowers eggs herbs vegetables honey maple meat plants poultry prepared-foods soap coffee fruits mushrooms"},{"type":"market","name":"Ohio Valley Farmers' Market","website":"http://www.ovfarmersmarket.org","facebook":"Ohio Valley Farmers' Market","twitter":"OV Farmers Market @ovfarmersmarket","street":"3200 Union St","city":"Bellaire","state":"OH","zip":"43906","longitude":"-80.742120","latitude":"40.014375","tags":"baked goods cheese crafts flowers eggs herbs vegetables honey jams maple meat plants poultry soap coffee fruits pet food"},{"type":"market","name":"Ohio Valley Farmers' Market","website":"http://www.ovfarmersmarket.org","facebook":"Ohio Valley Farmers' Market","twitter":"OV Farmers Market @ovfarmersmarket","street":"67800 Mall Rd","city":"St. Clairsville ","state":"OH","zip":"43950","longitude":"-80.865892","latitude":"40.069884","tags":"baked goods cheese crafts eggs herbs vegetables honey jams maple meat plants poultry prepared-foods soap fruits pet food"},{"type":"market","name":"Olde Pickerington Farmers' Market","website":"https://www.pickeringtonvillage.com/farmers-market","facebook":"https://www.facebook.com/oldepickeringtonfarmersmarket","twitter":"https://twitter.com/pickfarmers","street":"89 N Center St ","city":"Pickerington","state":"OH","zip":"43147","longitude":"-82.754217","latitude":"39.886238","tags":"baked goods crafts flowers eggs seafood herbs vegetables honey jams maple meat plants poultry prepared-foods soap coffee fruits juices mushrooms pet food"},{"type":"market","name":"Oxford Farmers Market","website":"http://www.oxfordfarmersmarket.com","facebook":"oxford farmers market","twitter":"","street":"E. Park Place","city":"Oxford","state":"OH","zip":"45056","longitude":"-84.741544","latitude":"39.510915","tags":"organic baked goods crafts flowers eggs herbs vegetables honey jams maple meat nuts plants poultry prepared-foods soap trees wine coffee fruits juices mushrooms pet food"},{"type":"market","name":"Prairie Township Farmer's Market","website":"http://oh-prairietownship2.civicplus.com/219/Farmers-Market","facebook":"","twitter":"","street":"5955 W. Broad Street","city":"Galloway","state":"OH","zip":"43119","longitude":"-83.009303","latitude":"39.9695356","tags":"baked goods eggs vegetables honey jams maple poultry coffee fruits juices"},{"type":"market","name":"Saint Mary Farmers Market","website":"","facebook":"https://m.facebook.com/saintmaryfarmersmarketgv/","twitter":"","street":"700 s third st","city":"Columbus ","state":"OH","zip":"43206","longitude":"-82.994617","latitude":"39.948137","tags":"baked goods cheese crafts flowers eggs herbs vegetables honey jams meat poultry soap coffee fruits juices pet food"},{"type":"market","name":"SaintParis FarmersMarket","website":"","facebook":"SaintParis FarmersMarket","twitter":"","street":"135 W. Main St","city":"Saint Paris","state":"OH","zip":"43072","longitude":"-83.959772","latitude":"40.127699","tags":"baked goods cheese crafts vegetables honey maple plants fruits"},{"type":"market","name":"SE Columbus Farmer's & Grower's Market","website":"","facebook":"https://www.facebook.com/Southeastfarmersgrowers43232/","twitter":"","street":"5081 Carbondale Drive","city":"Columbus","state":"OH","zip":"43232","longitude":"-82.847372","latitude":"39.924927","tags":"baked goods crafts herbs vegetables honey jams soap fruits mushrooms"},{"type":"market","name":"Shiloh Farmers' Market","website":"http://www.shilohfarmersmarket.com/","facebook":"https://www.facebook.com/Shiloh-Farmers-Market-508150235911225/","twitter":"","street":"5300 Philadelphia Dr.","city":"Dayton ","state":"OH","zip":"45415","longitude":"-84.235026","latitude":"39.819046","tags":"baked goods cheese crafts flowers eggs herbs vegetables honey jams maple meat plants poultry prepared-foods soap coffee fruits juices mushrooms"},{"type":"market","name":"Stow Community Farmers Market","website":"http://www.stowfarmersmarket.com","facebook":"@StowCommunityFarmersMarket","twitter":"","street":"1567 Pilgrim Drive","city":"Stow","state":"OH","zip":"44224","longitude":"-81.452156","latitude":"41.168794","tags":"baked goods crafts eggs herbs vegetables honey jams maple meat plants prepared-foods soap trees coffee fruits pet food"},{"type":"market","name":"Summit Lake Neighborhood Farmers' Market","website":"http://www.letsgrowakron.org","facebook":"https://www.facebook.com/LetsGrowAkron/","twitter":"letsgrowakron","street":"380 W. Crosier St.","city":"Akron","state":"OH","zip":"44311","longitude":"-81.542318","latitude":"41.058965","tags":"organic baked goods crafts flowers vegetables honey jams soap coffee beans fruits"},{"type":"market","name":"The Fairfield Farmers Market","website":"","facebook":"http://bit.ly/thefairfieldfarmersmarket","twitter":"","street":"411 Wessel Drive","city":"Fairfield","state":"OH","zip":"45014","longitude":"-84.563916","latitude":"39.334042","tags":"baked goods cheese crafts eggs herbs vegetables honey jams poultry soap wine coffee fruits juices mushrooms pet food"},{"type":"market","name":"Tremont Farmers Market","website":"https://experiencetremont.com/featured-events/farmers-market/","facebook":"https://www.facebook.com/search/top?q=tremont%20farmers%27%20market","twitter":"","street":"1200 Startkweather Ave","city":"Cleveland","state":"OH","zip":"44113","longitude":"-81.690301","latitude":"41.479328","tags":"baked goods cheese crafts flowers eggs herbs vegetables honey jams plants poultry prepared-foods soap coffee beans fruits grains"},{"type":"market","name":"Upper Arlington Farmers Market","website":"http://www.getfreshmarkets.org","facebook":"","twitter":"","street":"2850 Tremont Rd","city":"Upper Arlington","state":"OH","zip":"43221","longitude":"-83.066903","latitude":"40.013849","tags":"organic baked goods flowers eggs seafood vegetables honey jams meat plants poultry coffee fruits"},{"type":"market","name":"Uptown Westerville Farmers' Market","website":"https://www.marketwednesday.com/","facebook":"https://www.facebook.com/MarketWednesday/","twitter":"https://twitter.com/marketwednesday","street":"62 N. State St.","city":"Westerville","state":"OH","zip":"43081","longitude":"-82.932051","latitude":"40.127570","tags":"baked goods cheese flowers eggs seafood herbs vegetables honey jams maple meat plants poultry fruits"},{"type":"market","name":"Village Market- Slavic Village","website":"http://slavicvillage.org/villagemarket","facebook":"https://www.facebook.com/VillageMarketSlavicVillage/","twitter":"","street":"5106 Fleet Ave","city":"Cleveland ","state":"OH","zip":"44105","longitude":"-81.654595","latitude":"41.455724","tags":"baked goods herbs vegetables honey jams plants fruits"},{"type":"market","name":"Westerville Saturday Farmers Market","website":"http://www.UptownWestervilleInc.com","facebook":"Westerville Saturday Farmers Market","twitter":"","street":"21 South State Street","city":"Westerville","state":"OH","zip":"43081","longitude":"-82.913324","latitude":"40.123435","tags":"baked goods crafts flowers eggs herbs vegetables honey jams maple meat nuts plants poultry prepared-foods soap coffee fruits grains juices mushrooms pet food wild"},{"type":"market","name":"Westgate Farmers Market","website":"http://www.westgatefarmersmarket.com","facebook":" https://www.facebook.com/WestgateFarmersMarket/","twitter":"","street":"2925 W. Broad Street","city":"Columbus","state":"OH","zip":"43204","longitude":"-83.078781","latitude":"39.954491","tags":"baked goods crafts flowers eggs herbs vegetables honey jams meat poultry prepared-foods soap coffee fruits mushrooms"}]
