[{"type":"farm","street":"850 South Breeze","city":"St. Charles","state":"MO","zip":"63304","longitude":"-90.658483","latitude":"38.718752","name":"Benne's Best Meat","website":"www.bennesbest.com","facebook":"https://www.facebook.com/bennesbest","twitter":"","tags":"eggs fresh-vegetables poultry fowl red-meat non-poultry-meat"},{"type":"farm","street":"1804 Burmingham Rd","city":"Forsyth","state":"MO","zip":"65653","longitude":"-93.0777380","latitude":"36.6569689","name":"Beyond Eden","website":"vintagepoultry.com","facebook":"https://www.facebook.com/beyondeden","twitter":"","tags":"poultry fowl"},{"type":"farm","street":"120 E Fox Hollow Rd","city":"Ashland","state":"MO","zip":"65010","longitude":"-92.3456505","latitude":"38.7866936","name":"Blue Fox Farm","website":"http://www.bluefoxfood.com/","facebook":"https://www.facebook.com/pages/Blue-Fox-Farm/357267831061749","twitter":"","tags":"baked-goods canned preserved coffee tea cut-flowers dairy products eggs herbs fresh-fruits fresh-vegetables honey juices ciders maple-products mushrooms poultry fowl prepared-foods red-meat non-poultry-meat soap body-care wild-harvested forest-products wine spirits beer hard-cider"},{"type":"farm","street":"7226 Highway O","city":"Ash Grove","state":"MO","zip":"65604","longitude":"-93.638307","latitude":"37.173422","name":"Blue Silo Beef","website":"https://bluesilobeef.com/","facebook":"https://www.facebook.com/bluesilobeef","twitter":"","tags":"red-meat non-poultry-meat"},{"type":"farm","street":"324 Velvet Antler Road","city":"Camdenton","state":"MO","zip":"65020","longitude":"-92.8551303","latitude":"38.0903328","name":"Canyon Goat Company, Inc.","website":"http://www.canyongoat.com/index.html","facebook":"https://www.facebook.com/pages/Canyon-Goat-Company/218608414896707?sk=info","twitter":"","tags":"red-meat non-poultry-meat"},{"type":"farm","street":"199 Jackson St.","city":"Augusta ","state":"MO","zip":"63332","longitude":"-90.8878600","latitude":"38.5742400","name":"Centennial Farms and Orchard","website":"CENTENNIAL FARMS.BIZ","facebook":"","twitter":"","tags":"baked-goods bedding plants canned preserved herbs fresh-fruits fresh-vegetables honey soap body-care"},{"type":"farm","street":"13948 Highway 15","city":"Paris","state":"MO","zip":"65275","longitude":"-91.997360","latitude":"39.394888","name":"Davis Farm","website":"","facebook":"","twitter":"","tags":"grains flour red-meat non-poultry-meat"},{"type":"farm","street":"30305 Thrush Drive","city":"Richland","state":"MO","zip":"65556","longitude":"-92.4438987","latitude":"37.7770030","name":"Farm Market","website":"","facebook":"","twitter":"","tags":"bedding plants fresh-fruits fresh-vegetables"},{"type":"farm","street":"13906 Osage Valley Rd","city":"Boonville","state":"MO","zip":"65233","longitude":"-92.7573691","latitude":"38.8851101","name":"Fed From The Farm","website":"https://fedfromthefarm.com/","facebook":"https://www.facebook.com/boatrightfarms/","twitter":"","tags":"dairy products eggs poultry fowl red-meat non-poultry-meat"},{"type":"farm","street":"2096 Farm Road 1130","city":"Verona","state":"MO","zip":"65769","longitude":"-93.827266","latitude":"36.896851","name":"G's Orchard","website":"","facebook":"","twitter":"","tags":"fresh-fruits fresh-vegetables"},{"type":"farm","street":"P.O. Box 74","city":"Weston","state":"MO","zip":"64098","longitude":"-94.9016298","latitude":"39.4111092","name":"Green Dirt Farm, LLC","website":"","facebook":"https://www.facebook.com/greendirtfarm","twitter":"","tags":"dairy products red-meat non-poultry-meat"},{"type":"farm","street":"RR 71 Box 1168","city":"Wheatland","state":"MO","zip":"65779","longitude":"-93.383060","latitude":"37.993085","name":"Green Gate Family Farm LLC","website":"","facebook":"","twitter":"","tags":"cut-flowers eggs fresh-fruits fresh-vegetables mushrooms poultry fowl"},{"type":"farm","street":"4905 highway 5","city":"Hartville","state":"MO","zip":"65667","longitude":"-92.555292","latitude":"37.286090","name":"Greenhill Vineyard and Farm.  We sell grapes.","website":"www.greenhillgrapes.com","facebook":"","twitter":"","tags":"fresh-fruits"},{"type":"farm","street":"41903 e. 144th","city":"richmond","state":"MO","zip":"64085","longitude":"-93.963643","latitude":"39.350219","name":"haines farms","website":"","facebook":"www.facebook.com/hainesfarms","twitter":"","tags":"bedding plants crafts woodworking cut-flowers eggs herbs fresh-fruits fresh-vegetables nursery-stock nuts wild-harvested forest-products"},{"type":"farm","street":"160 county road 831","city":"Sikeston","state":"MO","zip":"63801","longitude":"-89.676996","latitude":"36.828947","name":"Hamra Farms","website":"","facebook":"Hamra Farms","twitter":"https://www.twitter.com/HamraFarms","tags":"canned preserved fresh-vegetables"},{"type":"farm","street":"3738 Highway 47","city":"Lonedell","state":"MO","zip":"63060","longitude":"-90.868656","latitude":"38.238180","name":"Hart Apiaries","website":"www.hartapiaries.com","facebook":"","twitter":"","tags":"fresh-fruits honey"},{"type":"farm","street":"4738 W. State Hwy 86","city":"Lampe","state":"MO","zip":"65681","longitude":"-93.495140","latitude":"36.509845","name":"Heritage Farm and Ranch","website":"http://www.heritageranch.co/","facebook":"https://www.facebook.com/HeritageRanchBB","twitter":"","tags":"canned preserved eggs herbs fresh-fruits fresh-vegetables red-meat non-poultry-meat"},{"type":"farm","street":"3663 N. Highway 94","city":"St. Charles","state":"MO","zip":"63301","longitude":"-90.470826","latitude":"38.832144","name":"Hermans Farm Orchard","website":"www.hermansfarmorchard.com","facebook":"https://www.facebook.com/pages/Hermans-Farm-Orchard/159616344096544","twitter":"","tags":"bedding plants canned preserved eggs herbs fresh-fruits fresh-vegetables honey juices ciders nursery-stock"},{"type":"farm","street":"434 Whispering Wind Lane","city":"Cape Girardeau","state":"MO","zip":"63701","longitude":"-89.494019","latitude":"37.371078","name":"Hinkebein Hills Farm","website":"","facebook":"https://www.facebook.com/hinkebeins?rf=110698638992813","twitter":"","tags":"eggs poultry fowl red-meat non-poultry-meat"},{"type":"farm","street":"26 NE 80th Street","city":"Spickard","state":"MO","zip":"64679","longitude":"-93.588959","latitude":"40.189456","name":"Homestead Hill Farm & Nursery","website":"homesteadhillfarming.com","facebook":"https://www.facebook.com/HomesteadHillFarmandNursery/","twitter":"","tags":"baked-goods bedding plants canned preserved crafts woodworking cut-flowers eggs herbs fresh-fruits fresh-vegetables nursery-stock soap body-care wild-harvested forest-products"},{"type":"farm","street":"2428 Texas Prairie Rd","city":"Bates City","state":"MO","zip":"64011","longitude":"-94.066232","latitude":"39.025235","name":"John & Linda Fruit and Berry Farm","website":"","facebook":"","twitter":"","tags":"cut-flowers fresh-fruits fresh-vegetables"},{"type":"farm","street":"5550 County Road 1820","city":"West Plains","state":"MO","zip":"65775","longitude":"-91.8615530","latitude":"36.8335309","name":"Jolliff Farm","website":"http://jollifffarm.wordpress.com/","facebook":"","twitter":"","tags":"fresh-fruits fresh-vegetables"},{"type":"farm","street":"8001 Bode Ferry Rd","city":"Jefferson City","state":"MO","zip":"65101","longitude":"-92.089989","latitude":"38.469585","name":"Lage Farms LLC","website":"lagefarms.com","facebook":"lagefarms.com","twitter":"","tags":"red-meat non-poultry-meat"},{"type":"farm","street":"11529 HWY NN","city":"Louisiana","state":"MO","zip":"63353","longitude":"-91.076797","latitude":"39.427775","name":"Lil' Sprouts Farm","website":"www.EarthSprouts.com","facebook":"Www.facebook.com/lilsproutsfarm","twitter":"","tags":"cut-flowers dry beans eggs herbs fresh-fruits fresh-vegetables grains flour mushrooms soap body-care wild-harvested forest-products"},{"type":"farm","street":"21507 Lost Branch Way","city":"Brashear","state":"MO","zip":"63533","longitude":"-92.4550740","latitude":"40.1729085","name":"Lost Branch Blueberry Farm","website":"www.lostbranchblueberries.com","facebook":"www.facebook.com/lostbranchblueberryfarm","twitter":"@pricefamilylbbf","tags":""},{"type":"farm","street":"12465 ST RT JJ","city":"West Plains","state":"MO","zip":"65775","longitude":"-91.901681","latitude":"36.591597","name":"Lucky Falling Star Ranch LLC","website":"www.luckyfallingstarranch.com ","facebook":"","twitter":"","tags":"eggs red-meat non-poultry-meat"},{"type":"farm","street":"603 South Main Street","city":"Salem","state":"MO","zip":"65560","longitude":"-91.535215","latitude":"37.638961","name":"Meramec Bison Farm, LLC","website":"www.meramecbison.com","facebook":"https://www.facebook.com/pages/Meramec-Bison-Farm-LLC/195576180525013","twitter":"","tags":""},{"type":"farm","street":"17819 Hwy UU","city":"Louisiana","state":"MO","zip":"63353","longitude":"-91.143758","latitude":"39.411628","name":"Meyer farm","website":"","facebook":"Meyer farm","twitter":"","tags":"cut-flowers herbs fresh-fruits fresh-vegetables honey prepared-foods"},{"type":"farm","street":"29286 State Highway C","city":"La Grange ","state":"MO","zip":"63448","longitude":"-91.591174","latitude":"40.048545","name":"Miles Farms","website":"","facebook":"www.facebook.com/MilesFarmsMarket","twitter":"https://twitter.com/Miles_Farms","tags":"baked-goods herbs fresh-fruits fresh-vegetables soap body-care"},{"type":"farm","street":"11425 Street Highway KK","city":"Marshfield","state":"MO","zip":"65706","longitude":"-92.927052","latitude":"37.294758","name":"Millers Berry Farm","website":"","facebook":"Millers Berry Farm","twitter":"","tags":"fresh-fruits"},{"type":"farm","street":"Rt. 81, Box 149","city":"Koshkonong","state":"MO","zip":"65692","longitude":"-91.6456994","latitude":"36.5958946","name":"Missouri's Best Beef Co-Op","website":"www.mobest beef.com","facebook":"","twitter":"","tags":""},{"type":"farm","street":"7470 Jakes Prairie Road","city":"Sullivan","state":"MO","zip":"63080","longitude":"-91.2978842","latitude":"38.2798417","name":"Northern Prairie Alpacas, LLC","website":"http://www.northernprairiealpacas.com/","facebook":"https://www.facebook.com/pages/Northern-Prairie-Alpacas-LLC/122810441106955?ref=bookmarks","twitter":"","tags":""},{"type":"farm","street":"1775 Old Hwy E","city":"Granby","state":"MO","zip":"64844","longitude":"-94.2634316","latitude":"36.9352568","name":"OakWoods Farm","website":"oakwoodsfarm.com","facebook":"https://www.facebook.com/pages/OakWoods-Farm/260088397378669","twitter":"https://twitter.com/oakwoodsfarm","tags":"bedding plants canned preserved eggs herbs fresh-fruits fresh-vegetables mushrooms"},{"type":"farm","street":"552 Lick Creek","city":"Leasburg","state":"MO","zip":"65535","longitude":"-91.308962","latitude":"38.090853","name":"Ozark Berry Farm","website":"Ozarkberryfarm.com","facebook":"https://www.facebook.com/Berries.Bugs.Blooms","twitter":"","tags":"fresh-fruits"},{"type":"farm","street":"30226 Holly Rd","city":"Pierce City","state":"MO","zip":"65723","longitude":"-94.0961713","latitude":"36.9292199","name":"Ozark Country Creations","website":"","facebook":"www.facebook.com/hatfieldtomatofarm","twitter":"","tags":"fresh-vegetables"},{"type":"farm","street":"12650 State Highway M","city":"Wright City","state":"MO","zip":"63390","longitude":"-91.012318","latitude":"38.785607","name":"Palme Acres Farms","website":"http://www.palmeacres.com","facebook":"","twitter":"","tags":"red-meat non-poultry-meat"},{"type":"farm","street":"8290 CR 1980","city":"West Plains","state":"MO","zip":"65775","longitude":"-91.738379","latitude":"36.846826","name":"Peace Valley Poultry","website":"www.freshchickenandturkey.com","facebook":"","twitter":"","tags":"pet-food poultry fowl soap body-care"},{"type":"farm","street":"3194 Oakwood Dr.","city":"Napoleon","state":"MO","zip":"64074","longitude":"-94.0485164","latitude":"39.0615522","name":"PlayHaven Farm LLC","website":"http://www.playhavenfarm.com/","facebook":"https://www.facebook.com/PlayHavenFarm","twitter":"","tags":"eggs poultry fowl red-meat non-poultry-meat"},{"type":"farm","street":"25717 FR 1168","city":"Eagle Rock ","state":"MO","zip":"65641","longitude":"-93.7812378","latitude":"36.5594726","name":"Prier Farms Grassfed #0389","website":"","facebook":"Prier Farms Grassfed #0389","twitter":"","tags":""},{"type":"farm","street":"416 Poplar Drive","city":"Highlandville","state":"MO","zip":"65669","longitude":"-93.317071","latitude":"36.901720","name":"Purple Gate Farm","website":"","facebook":"https://www.facebook.com/pages/Purple-Gate-Farm/566680560033305","twitter":"","tags":"eggs poultry fowl"},{"type":"farm","street":"624 Stringtown Rd","city":"Seymour","state":"MO","zip":"65746","longitude":"-92.7887619","latitude":"37.2556817","name":"Rachel's Goat & Chicken Farm","website":"http://www.rachelsgoatfarm.com/","facebook":"","twitter":"","tags":"eggs fresh-fruits fresh-vegetables poultry fowl red-meat non-poultry-meat soap body-care"},{"type":"farm","street":"21655 Hwy H","city":"Monett","state":"MO","zip":"65708","longitude":"-93.918396","latitude":"36.960386","name":"Rausch's Blueberries","website":"","facebook":"","twitter":"","tags":"fresh-fruits"},{"type":"farm","street":"37013 State Highway 25 South","city":"Malden ","state":"MO","zip":"63863","longitude":"-89.971274","latitude":"36.527500","name":"Sara's Produce","website":"","facebook":"https://www.facebook.com/SarasProduce","twitter":"","tags":"canned preserved eggs fresh-vegetables honey"},{"type":"farm","street":"1784 Doll Road","city":"Hermann","state":"MO","zip":"65041","longitude":"-91.4205244","latitude":"38.5912056","name":"Schneider Farms LLC","website":"www.schneiderfarmsllc.com","facebook":"https://www.facebook.com/Schneider-Farms-162860030399928","twitter":"","tags":"eggs poultry fowl red-meat non-poultry-meat"},{"type":"farm","street":"1068 S Metzletein Rd","city":"Clever","state":"MO","zip":"65631","longitude":"-93.4996849","latitude":"37.0244265","name":"Serendipity Acres, LLC","website":"","facebook":"https://www.facebook.com/Serendipityacresevans/","twitter":"","tags":"bedding plants canned preserved crafts woodworking cut-flowers eggs fresh-fruits fresh-vegetables honey maple-products mushrooms soap body-care"},{"type":"farm","street":"12780 Jantzen Ln","city":"Platte City","state":"MO","zip":"64079","longitude":"-94.845979","latitude":"39.321550","name":"Serendipity Farm & Orchard","website":"","facebook":"http://www.facebook.com/?ref=tn_tnmn#%21/SerendipityFarmOrchard","twitter":"","tags":"baked-goods canned preserved cut-flowers eggs fresh-fruits fresh-vegetables"},{"type":"farm","street":"4487 Elder Road Post Office Box 216","city":"Gray Summit","state":"MO","zip":"63089","longitude":"-90.862958","latitude":"38.492664","name":"Seven Gables Farm","website":"sevengablesfarm.com","facebook":"https://www.facebook.com/pages/Seven-Gables-Farm/618425231566963?sk=timeline","twitter":"","tags":"bedding plants canned preserved crafts woodworking cut-flowers dry beans eggs fresh-fruits fresh-vegetables mushrooms nursery-stock wine spirits beer hard-cider"},{"type":"farm","street":"8725 N Horseshoe Rd","city":"Dittmer","state":"MO","zip":"63023","longitude":"-90.7561350","latitude":"38.1978360","name":"Stone-Leady Farms","website":"www.stoneleadyfarms.com","facebook":"www.facebook.com/StoneLeadyFarms","twitter":"","tags":"dairy products fresh-vegetables red-meat non-poultry-meat soap body-care"},{"type":"farm","street":"19410 State Route O","city":"Rolla","state":"MO","zip":"65401","longitude":"-91.743907","latitude":"37.815275","name":"The Blue Hill Company, LLC","website":"www.thebluehillco.com","facebook":"https://www.facebook.com/TheBlueHillCo/","twitter":"","tags":"baked-goods canned preserved coffee tea honey nuts soap body-care"},{"type":"farm","street":"21505 Hwy OO","city":"Eolia","state":"MO","zip":"63344","longitude":"-96.690674","latitude":"36.544949","name":"Thistle Hill Plantation","website":"thistlehillplantation.com","facebook":"","twitter":"","tags":"crafts woodworking eggs juices ciders maple-products red-meat non-poultry-meat"},{"type":"farm","street":"15920 US highway 160","city":"Forsyth","state":"MO","zip":"65653","longitude":"-93.032275","latitude":"36.729878","name":"Tri-Lakes Orchards","website":"www.accounting-taxpros.com","facebook":"https://www.facebook.com/pages/Tri-Lakes-Orchards-LLC/279365858871273","twitter":"","tags":"fresh-vegetables"},{"type":"farm","street":"1002 Highway 19","city":"Hermann","state":"MO","zip":"65041","longitude":"-91.468241","latitude":"38.773117","name":"Wil farm","website":"wilfarm.org","facebook":"","twitter":"","tags":"bedding plants cut-flowers eggs fresh-fruits fresh-vegetables"},{"type":"farm","street":"3511 Hwy F","city":"New Melle","state":"MO","zip":"63365","longitude":"-90.878906","latitude":"38.708905","name":"Wind Ridge Farm","website":"Http://www.windridgefarm.net","facebook":"https://www.facebook.com/PickingUpdate?ref=ts","twitter":"HTTPS://www.twitter.com/Pickingupdate","tags":"fresh-vegetables"},{"type":"market","name":"Arnold Farmers Market","website":"https://www.arnoldmo.org/government/departments/parks-recreation/arnold-farmers-market/","facebook":"https://www.facebook.com/arnoldfarmersmarket/?ref=settings","twitter":"ArnoldFarmMarket","street":"2400 Bradley Beach Road","city":"Arnold","state":"MO","zip":"63010","longitude":"-90.353093","latitude":"38.453275","tags":"organic baked goods crafts flowers eggs herbs vegetables honey jams meat nuts plants poultry prepared-foods soap coffee beans fruits pet food wild"},{"type":"market","name":"Aurora Local Farmer's Market - Summer Market","website":"","facebook":"Aurora Local Farmers Market","twitter":"","street":"2031 S. Elliott Ave.","city":"Aurora","state":"MO","zip":"65605","longitude":"-93.7201867","latitude":"36.9489080","tags":"baked goods crafts flowers eggs herbs vegetables jams plants prepared-foods soap fruits wild"},{"type":"market","name":"Belton Farmers Market","website":"","facebook":"https://www.facebook.com/BeltonMoFarmersMarket/","twitter":"","street":"Memorial Park","city":"Belton ","state":"MO","zip":"64012","longitude":"-94.525252","latitude":"38.808556","tags":"baked goods crafts flowers eggs vegetables honey jams maple soap fruits"},{"type":"market","name":"Boonville Farmers Market Inc","website":"https://boonvillemofarmersmarket.weebly.com/","facebook":"@BoonvilleMOFarmersMarket","twitter":"@boonfarmmarket","street":"1931 Boone Village Shopping Center","city":"Boonville","state":"MO","zip":"65233","longitude":"-92.741591","latitude":"38.955643","tags":"baked goods crafts flowers eggs herbs vegetables honey jams meat plants poultry soap fruits mushrooms"},{"type":"market","name":"Cape Riverfront Market","website":"http://www.downtowncapegirardeau.com/cape-riverfront-market/","facebook":"https://www.facebook.com/CapeRiverfrontMarket","twitter":"","street":"35 S. Spanish St.","city":"Cape Girardeau","state":"MO","zip":"63701","longitude":"-89.519874","latitude":"37.302699","tags":"baked goods cheese crafts flowers eggs seafood herbs vegetables honey jams maple meat nuts plants prepared-foods soap trees coffee beans fruits mushrooms pet food"},{"type":"market","name":"Carrollton Farmers Market","website":"","facebook":"https://www.facebook.com/CarrolltonFarmersMarket","twitter":"","street":"Carrollton Uptown Square","city":"Carrollton","state":"MO","zip":"64633","longitude":"-93.496941","latitude":"39.358097","tags":"organic baked goods crafts eggs herbs vegetables honey jams plants prepared-foods fruits"},{"type":"market","name":"Columbia Farmers Market","website":"http://columbiafarmersmarket.org","facebook":"https://www.facebook.com/ColumbiaFarmersMarket","twitter":"https://twitter.com/comofarmers","street":"1769 West Ash Street","city":"Columbia","state":"MO","zip":"65203","longitude":"-92.364624","latitude":"38.958293","tags":"organic baked goods cheese crafts flowers eggs seafood herbs vegetables honey jams meat nuts plants poultry prepared-foods soap trees coffee beans fruits juices mushrooms wild"},{"type":"market","name":"De Soto Farmers' Market","website":"https://gethealthydesoto.org/","facebook":"https://www.facebook.com/cultivatingfoodandcommunity","twitter":"","street":"520 N. Main St.","city":"DeSoto","state":"MO","zip":"63020","longitude":"-90.552205","latitude":"38.143674","tags":"baked goods crafts flowers eggs herbs vegetables honey jams meat plants poultry soap trees coffee fruits grains mushrooms"},{"type":"market","name":"Empire Market","website":"https://downtownjoplin.com/joplin-empire-market/","facebook":"https://www.facebook.com/JoplinEmpireMarket","twitter":"https://twitter.com/TheEmpireMarket","street":"931 E 4th St","city":"Joplin","state":"MO","zip":"64801","longitude":"-94.502691","latitude":"37.087883","tags":"organic baked goods cheese crafts flowers eggs herbs vegetables honey jams meat nuts plants poultry prepared-foods soap wine coffee fruits mushrooms"},{"type":"market","name":"Farmers Market of the Ozarks","website":"http://www.LoveYourFarmer.com","facebook":"https://www.facebook.com/FMOZARKS/","twitter":"https://twitter.com/FMOzarks","street":"2144 E Republic Rd","city":"Springfield","state":"MO","zip":"65804","longitude":"-93.255076","latitude":"37.136365","tags":"organic baked goods cheese crafts flowers eggs seafood herbs vegetables honey meat nuts plants poultry prepared-foods soap wine coffee fruits grains juices mushrooms wild"},{"type":"market","name":"Ferguson Farmers' Market","website":"http://fergusonfarmersmarket.com/","facebook":"https://www.facebook.com/FergusonFarmersMarket/","twitter":"","street":"Plaza 501, 501 S. Florissant Rd.","city":"Ferguson","state":"MO","zip":"63135","longitude":"-90.3027133","latitude":"38.7375795","tags":"organic baked goods crafts flowers eggs herbs vegetables honey plants prepared-foods soap wine coffee fruits grains"},{"type":"market","name":"Freeman Health System, West - Farmers Market","website":"","facebook":"","twitter":"","street":"1102 W 32nd Street","city":"Joplin","state":"MO","zip":"64801","longitude":"-94.5268459","latitude":"37.0526877","tags":"baked goods flowers eggs vegetables honey jams meat poultry fruits"},{"type":"market","name":"Gladstone Farmers' Market","website":"http://www.gladstone.mo.us/farmersmarket/","facebook":"https://www.facebook.com/pages/Gladstone-Farmers-Market/107406389284555?fref=ts","twitter":"","street":"602 NE 70th Street","city":"Gladstone","state":"MO","zip":"64118","longitude":"-94.5730016","latitude":"39.2214548","tags":"baked goods crafts flowers eggs herbs vegetables honey jams meat plants beans fruits"},{"type":"market","name":"Hillsboro Farmers Market","website":"http://www.kressfarm.org","facebook":"","twitter":"","street":"5137 Glade Chapel Road","city":"Hillsboro","state":"MO","zip":"63050","longitude":"-90.566655","latitude":"38.232278","tags":"baked goods vegetables honey jams meat plants poultry soap trees fruits juices mushrooms"},{"type":"market","name":"Holden MO Farmer's Market","website":"","facebook":"https://www.facebook.com/holdenmarket","twitter":"","street":"101 S Market St.","city":"Holden","state":"MO","zip":"64040","longitude":"-93.9908869","latitude":"38.7186566","tags":"baked goods crafts vegetables jams plants prepared-foods soap fruits pet food wild"},{"type":"market","name":"INDEPENDENCE UPTOWN MARKET","website":"http://independenceuptownmarket.com","facebook":"","twitter":"","street":"211 W. Truman Rd.","city":"Independence ","state":"MO","zip":"64050","longitude":"-94.418179","latitude":"39.093845","tags":"baked goods crafts flowers eggs vegetables honey jams meat nuts plants soap fruits"},{"type":"market","name":"Jackson (MO) Farmers Market","website":"","facebook":"Jackson Farmers Market","twitter":"","street":"252 E. Jackson Blvd.","city":"Jackson ","state":"MO","zip":"63755","longitude":"-89.6659726","latitude":"37.3778137","tags":"baked goods crafts eggs herbs vegetables honey jams maple nuts plants soap fruits"},{"type":"market","name":"Kirksville Kiwanis Farmers' Market","website":"","facebook":"Kirksville Kiwanis Farmers' Market","twitter":"","street":"100 North Elson Street","city":"Kirksville","state":"MO","zip":"63501","longitude":"-92.584293","latitude":"40.195114","tags":"baked goods crafts flowers eggs herbs vegetables honey jams meat plants poultry prepared-foods soap trees fruits juices"},{"type":"market","name":"Knox County Farmers Market","website":"https://knoxcountyfarmersmarket.wordpress.com/","facebook":"https://www.facebook.com/KnoxCountyMOFarmersMarket","twitter":"","street":"107 N 4th St","city":"Edina","state":"MO","zip":"63537","longitude":"-92.172403","latitude":"40.167824","tags":"baked goods crafts flowers eggs herbs vegetables honey jams plants prepared-foods soap fruits"},{"type":"market","name":"Little Farm Store Market","website":"","facebook":"https://www.facebook.com/PleasantValleyFamilyFarm/","twitter":"","street":"520 Lucky Road","city":"Seymour","state":"MO","zip":"65746","longitude":"-92.680159","latitude":"37.118045","tags":"baked goods crafts flowers eggs herbs vegetables honey jams plants prepared-foods soap coffee fruits mushrooms"},{"type":"market","name":"Louisiana Community Betterment Farmer's Market","website":"","facebook":"Louisiana Community Betterment Farmers Market","twitter":"","street":"Sunset Park, Georgia Street","city":"Louisiana ","state":"MO","zip":"63353","longitude":"-91.062659","latitude":"39.441188","tags":"baked goods crafts flowers eggs herbs vegetables honey jams maple nuts plants prepared-foods soap fruits juices"},{"type":"market","name":"Midtown Farmers Market","website":"http://www.midwestfarmersmarkets.org/markets/midtown-farmers-market/","facebook":"https://www.facebook.com/Midtown-Farmers-Market-655879797806495/","twitter":"https://twitter.com/MidtownFmsMkt","street":"6655 Delmar Blvd, Back Lot","city":"University City","state":"MO","zip":"63130","longitude":"-90.307251","latitude":"38.656378","tags":"organic baked goods cheese crafts flowers eggs seafood herbs vegetables honey jams meat nuts plants poultry prepared-foods soap trees coffee fruits juices mushrooms pet food wild"},{"type":"market","name":"Neosho Farmers Market","website":"http://neoshofarmersmarket@gmail.com","facebook":"https://www.facebook.com/NeoshoFarmersMarket","twitter":"","street":"Spring & Jefferson St","city":"Downtown Neosho","state":"MO","zip":"64850","longitude":"-94.370028","latitude":"36.870009","tags":"baked goods cheese crafts flowers eggs herbs vegetables honey meat plants poultry prepared-foods soap trees coffee fruits juices"},{"type":"market","name":"Parkville Farmers' Market","website":"http://www.parkvillefarmersmarket.com","facebook":"https://www.facebook.com/pages/Parkville-Farmers-Market","twitter":"","street":"English Landing Park, off Hwy 9 in Parkville MO","city":"Parkville","state":"MO","zip":"","longitude":"-94.683086","latitude":"39.187828","tags":"baked goods crafts flowers eggs herbs vegetables honey jams meat plants prepared-foods soap coffee fruits wild"},{"type":"market","name":"Rogersville Farmer's Market","website":"","facebook":"https://www.facebook.com/rogersvillefriendsofthepark/","twitter":"","street":"270 County Line Road","city":"Rogersville","state":"MO","zip":"65741","longitude":"-93.066381","latitude":"37.115153","tags":"baked goods crafts flowers eggs herbs vegetables honey jams meat plants poultry prepared-foods soap trees coffee fruits juices mushrooms pet food"},{"type":"market","name":"Sedalia Area Farmers' Market","website":"http://www.sedaliaareafarmersmarket.com/","facebook":"https://www.facebook.com/SedaliaFarmersMarket/","twitter":"","street":"2233 W 16th St","city":"Sedalia, MO","state":"MO","zip":"65301","longitude":"-93.255481","latitude":"38.698011","tags":"baked goods crafts flowers eggs herbs vegetables honey jams meat plants poultry prepared-foods soap coffee beans fruits grains juices mushrooms pet food wild"},{"type":"market","name":"South St. Joseph Farmers Market at the Junction","website":"","facebook":"Southside Junction Farmers Market","twitter":"","street":"Lake & Illinois Avenues","city":"St. Joseph ","state":"MO","zip":"64504","longitude":"-94.865955","latitude":"39.718654","tags":"baked goods crafts flowers eggs herbs vegetables honey jams nuts plants prepared-foods soap fruits juices mushrooms pet food wild"},{"type":"market","name":"Steelville Farmer & Artist Saturday Morning Market","website":"","facebook":"https://www.facebook.com/SteelvilleMarket/","twitter":"","street":"392 Main St","city":"Steelville","state":"MO","zip":"65565","longitude":"-91.358368","latitude":"37.967138","tags":"baked goods cheese crafts flowers eggs herbs vegetables honey jams plants soap fruits wild"},{"type":"market","name":"Steelville Farmer & Artist Wednesday Night Market","website":"","facebook":"https://www.facebook.com/SteelvilleMarket/","twitter":"","street":"Hoppe Spring Park, Church Street","city":"Steelville","state":"MO","zip":"65565","longitude":"-91.359291","latitude":"37.966076","tags":"baked goods cheese crafts flowers eggs vegetables honey jams plants soap fruits wild"},{"type":"market","name":"Vernon County Farmers Market","website":"","facebook":"Nevada Vernon County Farmers Market","twitter":"","street":"PO Box 873","city":"Nevada","state":"MO","zip":"64772","longitude":"-94.340102","latitude":"37.843772","tags":"baked goods flowers eggs herbs vegetables honey jams meat plants poultry soap fruits pet food"},{"type":"market","name":"Webb City Farmers Market","website":"http://www.webbcityfarmersmarket.com/","facebook":"https://www.facebook.com/WebbCityFarmersMarket","twitter":"","street":"106 East Tracy Street","city":"Webb City","state":"MO","zip":"64870","longitude":"-94.462592","latitude":"37.140206","tags":"baked goods crafts flowers eggs seafood herbs vegetables honey meat nuts plants poultry prepared-foods soap coffee fruits mushrooms"},{"type":"market","name":"West Plains Area Farmers' Market","website":"","facebook":"www.facebook.com/WestPlainsAreaFarmersMarket/","twitter":"","street":"1380 Bill Virdon Blvd.","city":"West Plains","state":"MO","zip":"65775","longitude":"-91.835774","latitude":"36.723987","tags":"organic baked goods crafts eggs herbs vegetables honey jams plants poultry soap fruits"}]
